,station_id,station_nom,diff_mean,station_capacity,Coordonnées géographiques,lat,lon,mecanique_dispo_nb,electrique_dispo_nb,mecanique_ratio,electrique_ratio
0,10001,René Boulanger - Lancry,48,62,"48.8685433,2.3600032",48.8685433,2.3600032,22,21,0.51,0.49
1,10003,Hauteville - Bonne Nouvelle,24,17,"48.87077436024043,2.349649636832728",48.87077436024043,2.349649636832728,3,1,0.75,0.25
2,10004,Metz - Faubourg Saint-Denis,87,48,"48.870893,2.353521",48.870893,2.353521,7,5,0.58,0.42
3,10005,Petites Ecuries - Faubourg Poissonnière,40,18,"48.87397217237368,2.348388757504776",48.87397217237368,2.348388757504776,1,3,0.25,0.75
4,10006,Petites Ecuries - Faubourg Saint-Denis,32,28,"48.87287120589831,2.3542150855064397",48.87287120589831,2.3542150855064397,1,1,0.5,0.5
5,10008,Cité Riverin - Château d'Eau,47,18,"48.870702423554306,2.358739863900845",48.870702423554306,2.358739863900845,11,5,0.69,0.31
6,10009,Mairie du 10ème,71,19,"48.87208944990723,2.357582598924637",48.87208944990723,2.357582598924637,7,6,0.54,0.46
7,1001,Quai de l'Horloge - Pont Neuf,9,17,"48.857058739111096,2.341798283943937",48.857058739111096,2.341798283943937,7,5,0.58,0.42
8,10010,Place Jacques Bonsergent,15,33,"48.870948218595146,2.3612049221992497",48.870948218595146,2.3612049221992497,28,3,0.9,0.1
9,10011,Bourse du Travail,126,17,"48.868976638825686,2.362343855202198",48.868976638825686,2.362343855202198,8,7,0.53,0.47
10,10012,Vinaigriers - Magenta,3,25,"48.8731167,2.3593052",48.8731167,2.3593052,9,3,0.75,0.25
11,10013,Alibert - Jemmapes,-117,60,"48.8710440519842,2.366104461987773",48.8710440519842,2.366104461987773,10,2,0.83,0.17
12,10014,Marseille - Beaurepaire,89,55,"48.871624306962985,2.3639265082738348",48.871624306962985,2.3639265082738348,26,8,0.76,0.24
13,10015,Lucien Sampaix - Récollets,19,46,"48.874330377560476,2.3621229082345963",48.874330377560476,2.3621229082345963,7,10,0.41,0.59
14,10016,Récollets - Square Villemin,-80,17,"48.875034655883944,2.359801238597928",48.875034655883944,2.359801238597928,6,7,0.46,0.54
15,10017,Gare de l'Est - Fidélité,57,15,"48.874575,2.356796",48.874575,2.356796,7,2,0.78,0.22
16,10018,Square Alban Satragne,-17,30,"48.875388227727306,2.355956733335916",48.875388227727306,2.355956733335916,14,10,0.58,0.42
17,10019,Paradis - Hauteville,-4,31,"48.874999954666755,2.3522757401923404",48.874999954666755,2.3522757401923404,8,3,0.73,0.27
18,1002,Victoria - Place du Chatelet,62,22,"48.85799259152685,2.3469167947769165",48.85799259152685,2.3469167947769165,17,3,0.85,0.15
19,10020,Chabrol - d'Hauteville,20,11,"48.87701838803332,2.3513179644942284",48.87701838803332,2.3513179644942284,1,0,1.0,0.0
20,10021,Marché Saint-Quentin,-19,15,"48.877356057652264,2.354511445637388",48.877356057652264,2.354511445637388,2,2,0.5,0.5
21,10023,Gare de l'Est - Verdun,-12,14,"48.87615605427147,2.360914908320552",48.87615605427147,2.360914908320552,2,8,0.2,0.8
22,10024,Buisson Saint-Louis - Saint-Maur,73,19,"48.87174684930295,2.3722528328789854",48.87174684930295,2.3722528328789854,0,2,0.0,1.0
23,10025,Jemmapes - Ecluses Saint-Martin,58,15,"48.87748519186726,2.3660067468881607",48.87748519186726,2.3660067468881607,7,6,0.54,0.46
24,10026,Gare de l'Est - Chateau Landon,-26,59,"48.879305,2.362424",48.879305,2.362424,1,2,0.33,0.67
25,10028,Gare du Nord - Dunkerque,-110,29,"48.88042350842878,2.3527636751532555",48.88042350842878,2.3527636751532555,1,8,0.11,0.89
26,10029,Dunkerque - Rocroy,-145,24,"48.880726,2.351464",48.880726,2.351464,0,0,,
27,1003,Saint-Denis - Rivoli,7,43,"48.85905934084166,2.3476943001151085",48.85905934084166,2.3476943001151085,26,13,0.67,0.33
28,10031,Louis Blanc - Aqueduc,39,37,"48.88203018259946,2.3635615780949593",48.88203018259946,2.3635615780949593,0,4,0.0,1.0
29,10032,Claude Vellefaux - Hôpital Saint-Louis,-34,32,"48.87285913900304,2.370071706985146",48.87285913900304,2.370071706985146,1,2,0.33,0.67
30,10033,Gare du Nord - Saint-Vincent de Paul,-205,24,"48.88095574164779,2.352430514838522",48.88095574164779,2.352430514838522,0,3,0.0,1.0
31,10034,Louis Blanc - La Chapelle,14,21,"48.88400896451429,2.3599335551261906",48.88400896451429,2.3599335551261906,0,0,,
32,10036,Aqueduc - Villette,5,28,"48.883886063895396,2.36719880331497",48.883886063895396,2.36719880331497,3,2,0.6,0.4
33,10037,Quai de Valmy,-13,26,"48.88126951579429,2.368186041712761",48.88126951579429,2.368186041712761,1,2,0.33,0.67
34,10038,Place du Colonel Fabien,29,27,"48.8775683208602,2.369879186153412",48.8775683208602,2.369879186153412,2,2,0.5,0.5
35,10039,Sambre et Meuse - Villette,-9,25,"48.87440566621717,2.373807237995119",48.87440566621717,2.373807237995119,0,2,0.0,1.0
36,10041,Gare du Nord - La Chapelle,-60,18,"48.884178287285735,2.3561057075858116",48.884178287285735,2.3561057075858116,1,1,0.5,0.5
37,1006,Grande Truanderie - Saint-Denis,173,33,"48.8626302,2.3498075",48.8626302,2.3498075,15,15,0.5,0.5
38,1007,Turbigo - Française,85,16,"48.86358858111446,2.3477794602513313",48.86358858111446,2.3477794602513313,12,3,0.8,0.2
39,1008,Les Halles - Saint-Eustache,39,32,"48.86362695901683,2.342623919248581",48.86362695901683,2.342623919248581,15,15,0.5,0.5
40,10105,Mazagran - Bonne Nouvelle,39,25,"48.870047123655254,2.351124845445156",48.870047123655254,2.351124845445156,5,1,0.83,0.17
41,10107,Gare du Nord - Hôpital Lariboisière,-156,49,"48.881949,2.352339",48.881949,2.352339,1,2,0.33,0.67
42,10110,Louis Blanc - Jemmapes,-25,31,"48.879330755297346,2.368448562920093",48.879330755297346,2.368448562920093,0,2,0.0,1.0
43,10113,Parmentier - Hôpital Saint-Louis,-41,43,"48.87137987425661,2.369896383666685",48.87137987425661,2.369896383666685,1,2,0.33,0.67
44,10114,Granges aux Belles - Hôpital Saint-Louis,59,60,"48.874794994841274,2.366669436984963",48.874794994841274,2.366669436984963,7,4,0.64,0.36
45,10115,Granges aux Belles,-61,27,"48.8761373390584,2.3680844979417",48.8761373390584,2.3680844979417,3,2,0.6,0.4
46,1012,Jean-Jacques Rousseau - Deux Ecus,28,22,"48.86297805972131,2.3414635285735126",48.86297805972131,2.3414635285735126,16,5,0.76,0.24
47,1013,Place du Palais Royal,92,67,"48.862382970646635,2.33848225325346",48.862382970646635,2.33848225325346,42,23,0.65,0.35
48,1014,Rivoli - Musée du Louvre,92,24,"48.86364636851945,2.33409583568573",48.86364636851945,2.33409583568573,13,11,0.54,0.46
49,1015,Place André Malraux,50,19,"48.86392515872666,2.3356226831674576",48.86392515872666,2.3356226831674576,0,0,,
50,10151,Gare du Nord - Faubourg Saint-Denis,150,28,"48.879612765503616,2.3568402975797653",48.879612765503616,2.3568402975797653,3,15,0.17,0.83
51,10152,Gare du Nord - Place de Valenciennes,-26,25,"48.879089,2.354235",48.879089,2.354235,3,8,0.27,0.73
52,10153,Gare du Nord - Denain,24,20,"48.879595787608096,2.3544725775718693",48.879595787608096,2.3544725775718693,2,4,0.33,0.67
53,1016,Thérèse - Opéra,116,25,"48.86648351450895,2.334433421223788",48.86648351450895,2.334433421223788,18,6,0.75,0.25
54,10161,Gare de l'Est - Faubourg-Saint-Martin,-74,32,"48.87564264747718,2.3594588041305546",48.87564264747718,2.3594588041305546,6,13,0.32,0.68
55,10162,Alexandre Parodi - Quai de Valmy,-29,24,"48.87935941942529,2.366596162319184",48.87935941942529,2.366596162319184,8,4,0.67,0.33
56,10163,Gare du Nord - Demarquay,0,30,"48.881154,2.358411",48.881154,2.358411,0,1,0.0,1.0
57,10164,Claude Vellefaux - Sambre et Meuse,-77,34,"48.875022,2.370478",48.875022,2.370478,2,0,1.0,0.0
58,10165,Gare de l'Est - Place du 11 Novembre 1918,25,40,"48.876327,2.3585464",48.876327,2.3585464,4,14,0.22,0.78
59,10166,Strasbourg - Saint-Denis,69,16,"48.86960164243346,2.35429085791111",48.86960164243346,2.35429085791111,7,2,0.78,0.22
60,1017,Saint-Honoré - 29 juillet,121,20,"48.86557114282421,2.330567417577153",48.86557114282421,2.330567417577153,13,6,0.68,0.32
61,1018,Alger - Rivoli,116,21,"48.86477355349535,2.329449393612793",48.86477355349535,2.329449393612793,6,11,0.35,0.65
62,1020,Cambon - Rivoli,132,40,"48.866143390992,2.3251800647136633",48.866143390992,2.3251800647136633,23,8,0.74,0.26
63,10201,Magenta - Chabrol,96,24,"48.876495350882045,2.3560990020632744",48.876495350882045,2.3560990020632744,5,6,0.45,0.55
64,1021,Halles - Bourdonnais,92,20,"48.86044899257468,2.3460162431001663",48.86044899257468,2.3460162431001663,12,8,0.6,0.4
65,1022,Danielle Casanova - Place Vendôme,107,37,"48.86826649822326,2.3304839059710503",48.86826649822326,2.3304839059710503,18,16,0.53,0.47
66,1023,Saint-Honoré - Musée du Louvre,4,22,"48.86344313284792,2.3348781846405102",48.86344313284792,2.3348781846405102,17,1,0.94,0.06
67,1024,Coquillière - Louvre,13,21,"48.86379590966231,2.3425736278295517",48.86379590966231,2.3425736278295517,3,13,0.19,0.81
68,1025,Oratoire - Rivoli,22,18,"48.861342760889265,2.3400047421455388",48.861342760889265,2.3400047421455388,11,6,0.65,0.35
69,1026,Place du Lieutenant Henri Karcher,52,30,"48.863490871724466,2.3400671035051346",48.863490871724466,2.3400671035051346,22,6,0.79,0.21
70,11001,Richard Lenoir - Place de la Bastille,-69,53,"48.8538327,2.3697222",48.8538327,2.3697222,20,18,0.53,0.47
71,11002,Roquette - Thiéré,245,23,"48.85507930579506,2.3733686318721463",48.85507930579506,2.3733686318721463,12,5,0.71,0.29
72,11003,Keller - La Roquette,117,34,"48.8555508,2.3752778",48.8555508,2.3752778,7,1,0.88,0.12
73,11004,Charonne - Faubourg Saint-Antoine,221,34,"48.85219190969573,2.3740932717919354",48.85219190969573,2.3740932717919354,17,6,0.74,0.26
74,11006,Ledru-Rollin - Place du Père Chaillet,316,37,"48.856433706943704,2.379020587761426",48.856433706943704,2.379020587761426,26,0,1.0,0.0
75,11007,Jean Macé - Faidherbe,78,63,"48.85337548425958,2.3828620836138725",48.85337548425958,2.3828620836138725,44,4,0.92,0.08
76,11009,Boulets - Voltaire,78,24,"48.85218705621031,2.389030158519745",48.85218705621031,2.389030158519745,2,1,0.67,0.33
77,11010,Boulets - Faubourg Saint-Antoine,-71,43,"48.84925926211519,2.391754614194301",48.84925926211519,2.391754614194301,1,5,0.17,0.83
78,11011,Richard Lenoir - Voltaire,195,25,"48.86164273877979,2.3727491497993474",48.86164273877979,2.3727491497993474,3,6,0.33,0.67
79,11012,Montreuil - Voltaire,20,34,"48.85050701184191,2.393075558274471",48.85050701184191,2.393075558274471,2,0,1.0,0.0
80,11014,Place de la Nation - Taillebourg,-330,47,"48.8488408,2.3973043",48.8488408,2.3973043,0,12,0.0,1.0
81,11016,Philippe-Auguste,-88,48,"48.851853488264595,2.393294535577297",48.851853488264595,2.393294535577297,4,10,0.29,0.71
82,11017,Charonne - Bureau,-39,47,"48.854176,2.396093",48.854176,2.396093,1,4,0.2,0.8
83,11018,Saint-Maur - République,-48,38,"48.86418586145509,2.378317415714264",48.86418586145509,2.378317415714264,3,7,0.3,0.7
84,11019,Charonne - Philippe-Auguste,22,32,"48.85560316202584,2.390546390619984",48.85560316202584,2.390546390619984,3,1,0.75,0.25
85,1102,Française - Etienne Marcel,12,37,"48.864053304653766,2.347587011754513",48.864053304653766,2.347587011754513,34,2,0.94,0.06
86,11020,Belfort - Voltaire,25,39,"48.8563358,2.3829901",48.8563358,2.3829901,10,1,0.91,0.09
87,11021,Charonne - Pierre Bayle,25,23,"48.858445054261914,2.39039812238911",48.858445054261914,2.39039812238911,1,1,0.5,0.5
88,11022,Roquette - Auguste Laurent,260,16,"48.858001906023354,2.381797702650783",48.858001906023354,2.381797702650783,10,3,0.77,0.23
89,11023,Saint-Maur - Roquette,50,46,"48.858688774062955,2.383553994571467",48.858688774062955,2.383553994571467,11,4,0.73,0.27
90,11024,Mairie du 11ème,51,51,"48.858925,2.3789759",48.858925,2.3789759,26,1,0.96,0.04
91,11025,Froment - Bréguet,161,43,"48.8570414504784,2.37289470306807",48.8570414504784,2.37289470306807,15,5,0.75,0.25
92,11026,Chemin Vert - Saint-Maur,105,45,"48.86112461407359,2.381299026310444",48.86112461407359,2.381299026310444,0,3,0.0,1.0
93,11027,Saint-Ambroise - Parmentier,-8,38,"48.86214784454763,2.3772348091006275",48.86214784454763,2.3772348091006275,1,4,0.2,0.8
94,11028,Guillaume Bertrand - République,23,38,"48.86382517434147,2.38090637715497",48.86382517434147,2.38090637715497,3,2,0.6,0.4
95,11029,Ménilmontant - Oberkampf,-48,40,"48.8666176586814,2.38301344041578",48.8666176586814,2.38301344041578,0,0,,
96,11030,Oberkampf - République,87,24,"48.865316087070475,2.3761147849099955",48.865316087070475,2.3761147849099955,0,4,0.0,1.0
97,11031,Jacquard - Ternaux,119,39,"48.8646605,2.373162",48.8646605,2.373162,0,2,0.0,1.0
98,11032,Jean-Pierre Timbaud - Vaucouleurs,111,47,"48.867937,2.377885",48.867937,2.377885,0,2,0.0,1.0
99,11033,Bréguet - Sabin,156,33,"48.856931678257446,2.3706749462105408",48.856931678257446,2.3706749462105408,22,10,0.69,0.31
100,11034,Parmentier - Fontaine au Roi,127,48,"48.86787670551736,2.372705978671471",48.86787670551736,2.372705978671471,4,4,0.5,0.5
101,11035,Parmentier - Abel Rabaud,22,52,"48.86921273836114,2.371688821240712",48.86921273836114,2.371688821240712,0,2,0.0,1.0
102,11036,Jules Ferry - Faubourg du Temple Paris,42,58,"48.868397,2.3678933",48.868397,2.3678933,17,7,0.71,0.29
103,11037,Faubourg Du Temple - Republique,123,38,"48.867872484748744,2.3648982158072323",48.867872484748744,2.3648982158072323,24,9,0.73,0.27
104,11038,Temple - Charlot,0,45,"48.86570934379584,2.365273725072355",48.86570934379584,2.365273725072355,38,4,0.9,0.1
105,11039,Richard Lenoir - Jean-Pierre Timbaud,65,36,"48.86580427668637,2.369337074966926",48.86580427668637,2.369337074966926,14,4,0.78,0.22
106,11040,Temple - Jean-Pierre Timbaud,66,36,"48.864465972010244,2.3660597205162053",48.864465972010244,2.3660597205162053,28,4,0.88,0.12
107,11041,Square Saint-Ambroise,-13,43,"48.860934,2.375841",48.860934,2.375841,13,5,0.72,0.28
108,11042,Grand Prieuré - Crussol,48,49,"48.86466062793517,2.369226553182906",48.86466062793517,2.369226553182906,38,7,0.84,0.16
109,11043,Place Pasdeloup,66,21,"48.86265421563133,2.3670325062844237",48.86265421563133,2.3670325062844237,8,10,0.44,0.56
110,11044,Square du Bataclan,-45,20,"48.8633762,2.3711327",48.8633762,2.3711327,8,1,0.89,0.11
111,11046,Place de la République - Voltaire,60,19,"48.86683096894219,2.3654810339212418",48.86683096894219,2.3654810339212418,12,5,0.71,0.29
112,11047,Amelot - Saint-Sébastien,188,30,"48.86114216276092,2.367799618107727",48.86114216276092,2.367799618107727,7,13,0.35,0.65
113,11048,Place Mireille Havet,251,43,"48.850533,2.383756",48.850533,2.383756,10,5,0.67,0.33
114,11101,Charles Delescluze,114,49,"48.85242200848887,2.380632497370243",48.85242200848887,2.380632497370243,39,7,0.85,0.15
115,11102,Alexandre Dumas - Voltaire,16,59,"48.85288867036487,2.389147640809553",48.85288867036487,2.389147640809553,14,5,0.74,0.26
116,11103,Pelée - Alphonse Baudin,58,38,"48.8600265,2.3710541",48.8600265,2.3710541,17,3,0.85,0.15
117,11104,Charonne - Robert et Sonia Delauney,-34,20,"48.85590755596891,2.3925706744194035",48.85590755596891,2.3925706744194035,0,1,0.0,1.0
118,11105,Parmentier - République,-26,50,"48.8644954,2.3750124",48.8644954,2.3750124,0,1,0.0,1.0
119,11107,Faidherbe - Dahomey,119,44,"48.851358329771806,2.383823134795429",48.851358329771806,2.383823134795429,33,6,0.85,0.15
120,11109,Pierre Levée - Fontaine Timbaud,13,23,"48.86632723374305,2.3711163550615306",48.86632723374305,2.3711163550615306,0,1,0.0,1.0
121,11110,Roquette - Folie Regnault,-61,52,"48.859246959155485,2.386553623578705",48.859246959155485,2.386553623578705,4,7,0.36,0.64
122,11111,Léon Frot - Charonne,32,19,"48.854963800335234,2.387217085372007",48.854963800335234,2.387217085372007,11,2,0.85,0.15
123,11112,Jules Vallès - Charonne,133,23,"48.85428437993525,2.384767457842827",48.85428437993525,2.384767457842827,5,2,0.71,0.29
124,11113,Richard Lenoir - Republique,39,58,"48.8667175,2.3692541",48.8667175,2.3692541,23,1,0.96,0.04
125,11114,Ledru-Rollin - Charonne,104,32,"48.85345855607243,2.3772463581947094",48.85345855607243,2.3772463581947094,18,3,0.86,0.14
126,11115,Montreuil - Gonnet,54,24,"48.85050056492107,2.389085628786445",48.85050056492107,2.389085628786445,10,4,0.71,0.29
127,1116,Ventadour - Opéra,93,27,"48.866810653323,2.334388448251871",48.866810653323,2.334388448251871,14,11,0.56,0.44
128,1117,Pont Neuf - Rivoli,-9,26,"48.86008989261731,2.344057559967041",48.86008989261731,2.344057559967041,14,7,0.67,0.33
129,1119,Cossonnerie - Sébastopol,106,24,"48.86132665908402,2.349419631063938",48.86132665908402,2.349419631063938,8,11,0.42,0.58
130,1120,Lavandieres Sainte Opportune - Rivoli,-10,27,"48.85927970247607,2.3466217517852783",48.85927970247607,2.3466217517852783,15,11,0.58,0.42
131,12001,Bastille - Biscornet,96,62,"48.851355779579,2.369220033288",48.851355779579,2.369220033288,40,8,0.83,0.17
132,12002,Lacuée - Lyon,208,16,"48.849268481958404,2.370458543300628",48.849268481958404,2.370458543300628,1,3,0.25,0.75
133,12004,Traversière - Ledru-Rollin,371,34,"48.850735824128805,2.375870111706245",48.850735824128805,2.375870111706245,18,13,0.58,0.42
134,12005,Crozatier - Faubourg Saint-Antoine,302,29,"48.8504400134045,2.37890136621104",48.8504400134045,2.37890136621104,2,2,0.5,0.5
135,12006,Gare de Lyon - Van Gogh,36,51,"48.8438397856433,2.370445024035681",48.8438397856433,2.370445024035681,38,6,0.86,0.14
136,12007,Gare de Lyon - Chalon,79,45,"48.84566619420225,2.3741452395915985",48.84566619420225,2.3741452395915985,29,16,0.64,0.36
137,12008,Hector Malot - Daumesnil,164,54,"48.84693552991762,2.3770876228809357",48.84693552991762,2.3770876228809357,43,5,0.9,0.1
138,12009,Charenton - Diderot,51,18,"48.84617146118711,2.3793068155646324",48.84617146118711,2.3793068155646324,4,4,0.5,0.5
139,12010,Daumesnil - Picpus,16,21,"48.8374688,2.401765",48.8374688,2.401765,0,3,0.0,1.0
140,12011,Charenton - Place du Col Bourgoin,285,35,"48.84486731955409,2.382578935054453",48.84486731955409,2.382578935054453,22,5,0.81,0.19
141,12013,Montgallet - Reuilly,110,16,"48.844291,2.3896481",48.844291,2.3896481,2,3,0.4,0.6
142,12015,Place de la Nation - Picpus,-32,36,"48.84682168154762,2.400113046169281",48.84682168154762,2.400113046169281,1,0,1.0,0.0
143,12016,Saint-Mande - Picpus,17,35,"48.845127728277696,2.4015686296481897",48.845127728277696,2.4015686296481897,0,0,,
144,12017,Saint-Mandé - Docteur Arnold Netter,36,39,"48.84462585769668,2.404946386814118",48.84462585769668,2.404946386814118,19,7,0.73,0.27
145,12018,Saint-Mandé - Fabre d'Eglantine,-39,34,"48.8453579,2.3965022",48.8453579,2.3965022,0,2,0.0,1.0
146,12019,Gare de Reuilly - Picpus,-28,28,"48.84267354116789,2.3972943797707558",48.84267354116789,2.3972943797707558,5,2,0.71,0.29
147,12020,Cours de Vincennes - Soult,-21,45,"48.846918761569306,2.4105220288038254",48.846918761569306,2.4105220288038254,1,5,0.17,0.83
148,12022,Sahel - Général Michel Bizot,-3,33,"48.840872964793355,2.4044444784522057",48.840872964793355,2.4044444784522057,1,0,1.0,0.0
149,12024,Gare de Bercy,59,35,"48.839794573906,2.3826066032052",48.839794573906,2.3826066032052,25,7,0.78,0.22
150,12026,Place Ginette Hamelin,101,51,"48.837853,2.382064",48.837853,2.382064,33,13,0.72,0.28
151,12027,Montgallet - Charenton,82,16,"48.84264777870052,2.386164927813738",48.84264777870052,2.386164927813738,2,0,1.0,0.0
152,12028,Vivaldi - Antoine-Julien Hénard,-35,27,"48.841923663276546,2.389728979467376",48.841923663276546,2.389728979467376,6,2,0.75,0.25
153,12029,Dugommier,-29,55,"48.8388110488154,2.38965779542923",48.8388110488154,2.38965779542923,10,7,0.59,0.41
154,12030,Charenton - Wattignies,101,33,"48.83667579640627,2.391795855555629",48.83667579640627,2.391795855555629,20,4,0.83,0.17
155,12031,Gabriel Lamé,241,36,"48.8351212784276,2.385534569621086",48.8351212784276,2.385534569621086,33,0,1.0,0.0
156,12032,Porte Dorée,179,36,"48.8354337,2.4077132",48.8354337,2.4077132,5,2,0.71,0.29
157,12033,François Truffaut - Saint Emilion,134,66,"48.83372354344807,2.386601903271428",48.83372354344807,2.386601903271428,47,18,0.72,0.28
158,12034,Pirogues de Bercy - Libourne,-5,49,"48.832308,2.38637",48.832308,2.38637,44,5,0.9,0.1
159,12035,Madagascar - Meuniers,70,33,"48.83460464474706,2.3970650508999825",48.83460464474706,2.3970650508999825,4,1,0.8,0.2
160,12036,Reuilly - Place Felix Eboue,-114,42,"48.84030274499962,2.394630398715453",48.84030274499962,2.394630398715453,0,1,0.0,1.0
161,12037,Reuilly - Daumesnil,-124,36,"48.8395385,2.3972516",48.8395385,2.3972516,1,0,1.0,0.0
162,12038,Picpus - Louis Braille,-67,44,"48.839988788911874,2.400525668552064",48.839988788911874,2.400525668552064,0,2,0.0,1.0
163,12039,Général Michel Bizot - Claude Decaen,82,38,"48.83481262982544,2.400927788127704",48.83481262982544,2.400927788127704,14,2,0.88,0.12
164,12040,Porte de Charenton,-86,67,"48.83124010585643,2.3989107459783554",48.83124010585643,2.3989107459783554,0,7,0.0,1.0
165,12041,Bois de Vincennes.,24,60,"48.8338064,2.4132221",48.8338064,2.4132221,5,3,0.62,0.38
166,12043,Daumesnil - Hébrard,100,40,"48.8429,2.38474",48.8429,2.38474,26,3,0.9,0.1
167,12101,Charenton - Prague,166,26,"48.848175129981016,2.376358449431232",48.848175129981016,2.376358449431232,18,2,0.9,0.1
168,12102,Bercy - Traversiére,105,30,"48.846192642574,2.3703800886869",48.846192642574,2.3703800886869,26,1,0.96,0.04
169,12105,Bercy - Villot,275,34,"48.841795009027,2.3767850184816",48.841795009027,2.3767850184816,33,10,0.77,0.23
170,12106,Gare de Lyon - Roland Barthes,34,68,"48.84395729494058,2.3790882155299187",48.84395729494058,2.3790882155299187,50,9,0.85,0.15
171,12107,Diderot - Pierre Bourdan,-20,21,"48.84764862079675,2.3902582749724393",48.84764862079675,2.3902582749724393,13,5,0.72,0.28
172,12108,Bercy.,82,66,"48.839966914994,2.3788625746965",48.839966914994,2.3788625746965,44,19,0.7,0.3
173,12109,Mairie du 12ème,0,30,"48.84085531176338,2.3875549435615544",48.84085531176338,2.3875549435615544,18,5,0.78,0.22
174,12111,Claude Decaen - Cannebière,27,27,"48.83761417037952,2.397253782195704",48.83761417037952,2.397253782195704,1,1,0.5,0.5
175,12112,Charenton - Jardiniers,-34,31,"48.833821772922654,2.394692664106047",48.833821772922654,2.394692664106047,3,5,0.38,0.62
176,12113,Cardinal Lavigerie,-14,46,"48.832934193699835,2.402636749399156",48.832934193699835,2.402636749399156,4,1,0.8,0.2
177,12114,Victor Hugo - Jeanne Jugan,-51,28,"48.843949064031825,2.415081394834419",48.843949064031825,2.415081394834419,2,1,0.67,0.33
178,12115,Porte de Vincennes,-19,33,"48.846454,2.415514",48.846454,2.415514,1,0,1.0,0.0
179,12119,Dom-Pérignon - Gravelle,-67,50,"48.82548157443457,2.4098803102970128",48.82548157443457,2.4098803102970128,3,1,0.75,0.25
180,12120,Lac Daumesnil - Saint-Maurice,-52,50,"48.82774555743318,2.4183654785156246",48.82774555743318,2.4183654785156246,0,5,0.0,1.0
181,12122,Bois de Vincennes - Polygone,-1,51,"48.83544491617421,2.431421081436563",48.83544491617421,2.431421081436563,5,18,0.22,0.78
182,12123,Château de Vincennes,27,52,"48.84423193255657,2.439209537709179",48.84423193255657,2.439209537709179,3,10,0.23,0.77
183,12125,Pyramide - Parc Floral,13,50,"48.837442,2.440452",48.837442,2.440452,27,11,0.71,0.29
184,12126,Gravelle - Route du Bac,-70,51,"48.824407,2.418455",48.824407,2.418455,11,7,0.61,0.39
185,12127,Tremblay - Lac des Minimes,13,48,"48.834131261494356,2.454751655459404",48.834131261494356,2.454751655459404,8,8,0.5,0.5
186,12128,Pyramide - Ecole du Breuil,8,34,"48.82237977153955,2.4586871266365056",48.82237977153955,2.4586871266365056,9,6,0.6,0.4
187,12129,Bois de Vincennes - Porte Jaune,-5,35,"48.838751246689455,2.4605489149689674",48.838751246689455,2.4605489149689674,3,0,1.0,0.0
188,12150,Bastille - Quai de la Rapée,31,27,"48.84682410855044,2.366936467587948",48.84682410855044,2.366936467587948,15,6,0.71,0.29
189,12151,Gare de Lyon - Place Louis Armand,281,60,"48.8455150897939,2.3726498446286",48.8455150897939,2.3726498446286,16,42,0.28,0.72
190,12153,Terroirs de France - Lheureux,61,55,"48.83212027074841,2.388618104159832",48.83212027074841,2.388618104159832,43,10,0.81,0.19
191,12154,Square Georges Melies,53,40,"48.84070239213081,2.409667745232582",48.84070239213081,2.409667745232582,2,4,0.33,0.67
192,12155,Rottembourg - Général Michel Bizot,19,43,"48.83787825992554,2.4044052511453633",48.83787825992554,2.4044052511453633,1,2,0.33,0.67
193,12156,Niger - Soult,-50,24,"48.84369906369085,2.410361237220498",48.84369906369085,2.410361237220498,4,1,0.8,0.2
194,12157,Fabre d'Eglantine - Place de la Nation,-138,68,"48.8471116,2.3956204",48.8471116,2.3956204,1,7,0.12,0.88
195,12161,Diderot - Reuilly,146,44,"48.84720845606067,2.3861273378133774",48.84720845606067,2.3861273378133774,24,8,0.75,0.25
196,12163,Hippodrome Paris-Vincennes,3,42,"48.82048387758518,2.446271181106568",48.82048387758518,2.446271181106568,9,7,0.56,0.44
197,12164,Stade Pershing,3,26,"48.829107826857424,2.458353526890278",48.829107826857424,2.458353526890278,3,6,0.33,0.67
198,13001,Port-Royal - Hôpital du Val-de-Grâce,5,18,"48.8376682728114,2.344813834660711",48.8376682728114,2.344813834660711,3,0,1.0,0.0
199,13002,Arago - Glacière,60,27,"48.83486054775774,2.3445770524322067",48.83486054775774,2.3445770524322067,1,0,1.0,0.0
200,13005,Cordelières - Arago,-23,46,"48.83548071896613,2.348572461702221",48.83548071896613,2.348572461702221,3,1,0.75,0.25
201,13006,Duméril - Jeanne d'Arc,80,40,"48.83815160808658,2.357108449556404",48.83815160808658,2.357108449556404,20,6,0.77,0.23
202,13007,Le Brun - Gobelins,-9,48,"48.835092787823875,2.353468135133752",48.835092787823875,2.353468135133752,2,4,0.33,0.67
203,13008,Place d'Italie - Soeur Rosalie,-414,52,"48.83190852039389,2.3546943448098023",48.83190852039389,2.3546943448098023,2,3,0.4,0.6
204,13009,Auguste Blanqui - Corvisart,-22,26,"48.8300989,2.3502726",48.8300989,2.3502726,0,0,,
205,13010,Place d'Italie - Vincent Auriol,-398,40,"48.83148187446674,2.356755029231863",48.83148187446674,2.356755029231863,0,0,,
206,13011,Hôpital - Campo-Formio,0,16,"48.835405,2.358218",48.835405,2.358218,0,3,0.0,1.0
207,13013,Saint-Marcel - Hôpital,156,21,"48.83950442458303,2.360989417022932",48.83950442458303,2.360989417022932,7,5,0.58,0.42
208,13014,Gare d'Austerlitz,71,14,"48.842524,2.364044",48.842524,2.364044,7,3,0.7,0.3
209,13015,Chevaleret - Louise Weiss,51,35,"48.83258651335057,2.371211388119954",48.83258651335057,2.371211388119954,15,6,0.71,0.29
210,13016,Primo Levi - Frigos,113,34,"48.83094844846017,2.37965351592796",48.83094844846017,2.37965351592796,11,3,0.79,0.21
211,13017,Nationale - Vincent Auriol,-48,33,"48.83252708397293,2.362354410392119",48.83252708397293,2.362354410392119,1,2,0.33,0.67
212,13018,Bruant - Vincent Auriol,25,25,"48.83484845292942,2.366826499627087",48.83484845292942,2.366826499627087,14,0,1.0,0.0
213,13019,Fernand Braudel - Vincent Auriol,92,36,"48.83637852318147,2.3723404482007027",48.83637852318147,2.3723404482007027,17,1,0.94,0.06
214,13020,Paul Klee - Place Augusta Holmes,27,43,"48.838946417408025,2.3704235663952966",48.838946417408025,2.3704235663952966,9,0,1.0,0.0
215,13021,Boussingault - Tolbiac,73,28,"48.82603516605852,2.342176808004326",48.82603516605852,2.342176808004326,1,0,1.0,0.0
216,13022,Butte aux Cailles - Esperance,24,36,"48.82758774190948,2.3492151126265526",48.82758774190948,2.3492151126265526,0,0,,
217,13023,Bobillot - Moulin des Prés,-185,28,"48.828657346203094,2.353020646316964",48.828657346203094,2.353020646316964,0,2,0.0,1.0
218,13024,Bobillot - Tolbiac,-59,33,"48.8255961335041,2.350204177200794",48.8255961335041,2.350204177200794,1,2,0.33,0.67
219,13025,Place de Rungis,41,32,"48.82245594764965,2.347382729482953",48.82245594764965,2.347382729482953,4,0,1.0,0.0
220,13026,Place Jean Delay,-12,35,"48.823316,2.354336",48.823316,2.354336,0,2,0.0,1.0
221,13027,Mazagran - Pierre de Coubertin,-6,15,"48.816218640260445,2.344226874411106",48.816218640260445,2.344226874411106,2,3,0.4,0.6
222,13028,Gouthière - Poterne des Peupliers,-17,33,"48.820507,2.351342",48.820507,2.351342,7,5,0.58,0.42
223,13030,Italie - Tolbiac,-28,21,"48.82557229464416,2.3576171323657036",48.82557229464416,2.3576171323657036,0,0,,
224,13032,Italie - Jardin Joan Miro,-98,26,"48.81990914045756,2.3592948541045193",48.81990914045756,2.3592948541045193,1,1,0.5,0.5
225,13033,Porte d'Italie,-79,13,"48.817161987718954,2.360236309468746",48.817161987718954,2.360236309468746,1,0,1.0,0.0
226,13035,Choisy - Tolbiac,-192,26,"48.82591155587,2.3602393269539",48.82591155587,2.3602393269539,0,0,,
227,13036,Olympiades,-207,36,"48.82676466519947,2.365086078643799",48.82676466519947,2.365086078643799,1,0,1.0,0.0
228,13037,Ivry - Baudricourt,-49,20,"48.824695995415006,2.363106073577468",48.824695995415006,2.363106073577468,0,4,0.0,1.0
229,13038,Choisy - Malmaisons,-77,25,"48.821919702956144,2.3633468834070914",48.821919702956144,2.3633468834070914,4,4,0.5,0.5
230,13039,Ivry - Simone Weil,13,18,"48.823283932030755,2.3659095168113713",48.823283932030755,2.3659095168113713,1,0,1.0,0.0
231,13041,Porte d'Ivry,-243,50,"48.82176874759649,2.3688706755638127",48.82176874759649,2.3688706755638127,2,2,0.5,0.5
232,13043,Dunois - Clisson,-26,51,"48.832294,2.3674523",48.832294,2.3674523,1,0,1.0,0.0
233,13044,Place Jeanne d'Arc,-4,36,"48.829575,2.369126",48.829575,2.369126,1,3,0.25,0.75
234,13045,Jean Colly - Tolbiac,66,36,"48.827817291597846,2.3705490678548813",48.827817291597846,2.3705490678548813,2,5,0.29,0.71
235,13046,Eugène Oudiné - Dessous Des Berges,80,44,"48.8256423,2.3750226",48.8256423,2.3750226,12,7,0.63,0.37
236,13047,Boutroux - Porte de Vitry,59,49,"48.822632,2.377738",48.822632,2.377738,29,1,0.97,0.03
237,13048,Wurtz - Tolbiac,-22,28,"48.82631195621006,2.344585955142975",48.82631195621006,2.344585955142975,1,0,1.0,0.0
238,13049,Vincent Auriol - Louise Weiss,10,22,"48.834001935501,2.3703888058662",48.834001935501,2.3703888058662,16,1,0.94,0.06
239,13050,Quai Panhard et Levassor,127,57,"48.82837482809675,2.384273745805574",48.82837482809675,2.384273745805574,49,5,0.91,0.09
240,13051,Halle Freyssinet - Parvis Alan Turing,26,23,"48.832846814471,2.3711421713233",48.832846814471,2.3711421713233,8,4,0.67,0.33
241,13052,Leredde - Tolbiac,11,44,"48.828876296639876,2.374438270926476",48.828876296639876,2.374438270926476,29,9,0.76,0.24
242,13053,Chevaleret - Tolbiac,5,21,"48.82941,2.375934",48.82941,2.375934,10,7,0.59,0.41
243,13054,Pau Casals - Neuve Tolbiac,49,53,"48.8311602,2.3774395",48.8311602,2.3774395,26,20,0.57,0.43
244,13055,M.- A. Lagroua Weill-Hallé -  F. Dolto,116,60,"48.828595283857425,2.380220606266108",48.828595283857425,2.380220606266108,15,13,0.54,0.46
245,13101,Croulebarde - Corvisart,0,34,"48.830981659316855,2.3481646925210953",48.830981659316855,2.3481646925210953,0,3,0.0,1.0
246,13102,Pitié-Salpêtrière,31,51,"48.83748810318667,2.365213818848133",48.83748810318667,2.365213818848133,18,2,0.9,0.1
247,13103,Hôpital Pitié Salpêtrière,-128,50,"48.8377016,2.3604946",48.8377016,2.3604946,9,1,0.9,0.1
248,13104,Gare d'Austerlitz - Quai Saint-Bernard,56,27,"48.84369030864,2.3657163977623",48.84369030864,2.3657163977623,0,0,,
249,13106,Bobillot - Paulin Mery,-264,23,"48.829899841747384,2.3543356766748507",48.829899841747384,2.3543356766748507,0,7,0.0,1.0
250,13109,Brillat-Savarin - Küss,18,21,"48.822203,2.350422",48.822203,2.350422,6,3,0.67,0.33
251,13110,Moulin de la Pointe,-8,22,"48.82092946051445,2.3563179373741145",48.82092946051445,2.3563179373741145,0,0,,
252,13113,Vistule - Choisy,-21,33,"48.82365543660611,2.3615723848342896",48.82365543660611,2.3615723848342896,0,1,0.0,1.0
253,13114,Nationale - Marcel Duchamp,-47,23,"48.82463749337136,2.3678014799952507",48.82463749337136,2.3678014799952507,2,2,0.5,0.5
254,13116,Place du Docteur Yersin,-326,50,"48.82010494991975,2.3725583776831627",48.82010494991975,2.3725583776831627,1,0,1.0,0.0
255,13117,Stade Georges Carpentier,-171,40,"48.82048243838136,2.366832196712494",48.82048243838136,2.366832196712494,4,2,0.67,0.33
256,13118,Regnault - Patay,120,63,"48.82435782216384,2.377065159380436",48.82435782216384,2.377065159380436,42,1,0.98,0.02
257,13120,Pierre Joseph Desault,118,19,"48.82110230800372,2.378775402903557",48.82110230800372,2.378775402903557,2,0,1.0,0.0
258,13121,Bruneseau - Quai d'Ivry,-46,48,"48.82494563758295,2.388566136360169",48.82494563758295,2.388566136360169,40,1,0.98,0.02
259,13122,Parc de Choisy,-229,25,"48.828156251574946,2.358513532903332",48.828156251574946,2.358513532903332,1,0,1.0,0.0
260,13123,BNF - Bibliothèque Nationale de France,188,42,"48.8350268238,2.3760157451034",48.8350268238,2.3760157451034,42,9,0.82,0.18
261,13125,Gare d'Austerlitz - Pont Charles de Gaulle,8,55,"48.842319830109304,2.3670300096273422",48.842319830109304,2.3670300096273422,33,8,0.8,0.2
262,13126,Place Nationale - Château-des-Rentiers,-86,18,"48.829566,2.365053",48.829566,2.365053,0,1,0.0,1.0
263,13515,Auguste Blanqui - Glacière,-157,60,"48.831151602964354,2.3438221961259837",48.831151602964354,2.3438221961259837,0,2,0.0,1.0
264,13516,Glacière - Soeur Catherine Marie,-57,40,"48.829522989420596,2.343570403754711",48.829522989420596,2.343570403754711,0,0,,
265,14001,Edgar Quinet - Gaité,-158,27,"48.84116092896631,2.32459545135498",48.84116092896631,2.32459545135498,0,4,0.0,1.0
266,14002,Edgar Quinet - Raspail,-218,46,"48.83940266673835,2.32971478253603",48.83940266673835,2.32971478253603,0,4,0.0,1.0
267,14003,Schoelcher - Raspail,-210,50,"48.83681733526843,2.3312794080411474",48.83681733526843,2.3312794080411474,4,3,0.57,0.43
268,14004,Port Royal - Hôpital Cochin,-51,23,"48.838373233813286,2.340717874467373",48.838373233813286,2.340717874467373,2,0,1.0,0.0
269,14005,René Coty - Place Denfert-Rochereau,-101,36,"48.83305647731638,2.332941144704819",48.83305647731638,2.332941144704819,0,1,0.0,1.0
270,14006,Saint-Jacques - Tombe Issoire,-68,23,"48.833206330538864,2.3369108140468597",48.833206330538864,2.3369108140468597,0,0,,
271,14007,Ferrus - Saint-Jacques,-7,34,"48.8313878,2.3408563",48.8313878,2.3408563,2,3,0.4,0.6
272,14008,Mouton Duvernet - Général Leclerc,-89,39,"48.831632518292565,2.3293121159076686",48.831632518292565,2.3293121159076686,1,1,0.5,0.5
273,14009,Tombe Issoire - René Coty,-78,36,"48.83051287670899,2.3343613743782043",48.83051287670899,2.3343613743782043,1,1,0.5,0.5
274,14010,Jean Moulin - Place Victor et Hélène Basch,-18,41,"48.82764910240992,2.326196730136872",48.82764910240992,2.326196730136872,1,0,1.0,0.0
275,14011,Place des Droits de l'Enfant,64,24,"48.8274804,2.3319217",48.8274804,2.3319217,0,0,,
276,14012,Sibelle - Alésia,11,25,"48.826701758539215,2.3384983465075493",48.826701758539215,2.3384983465075493,2,0,1.0,0.0
277,14013,Liard - Amiral Mouchez,78,14,"48.8214169,2.342167",48.8214169,2.342167,0,0,,
278,14014,Jourdan - Stade Charléty,-146,60,"48.819428333369,2.3433353751898",48.819428333369,2.3433353751898,1,6,0.14,0.86
279,14016,René Coty - Parc Montsouris,-44,55,"48.82479134498032,2.336124926805496",48.82479134498032,2.336124926805496,0,2,0.0,1.0
280,14018,Porte d'Orléans,-115,48,"48.8227639,2.3249313",48.8227639,2.3249313,0,3,0.0,1.0
281,14019,Sarrette - Général Leclerc,-45,22,"48.82503085292528,2.326412869398186",48.82503085292528,2.326412869398186,1,0,1.0,0.0
282,14020,Cimetière de Montrouge,-61,58,"48.822009,2.322188699",48.822009,2.322188699,0,0,,
283,14021,Place de la Porte de Châtillon,-103,59,"48.8242469,2.3186306",48.8242469,2.3186306,0,1,0.0,1.0
284,14022,Didot - Mariniers,-16,35,"48.82650543613106,2.313136198271666",48.82650543613106,2.313136198271666,0,1,0.0,1.0
285,14023,Adolphe Pinard - Victor Hugo,-15,52,"48.8236825874564,2.3077843710780144",48.8236825874564,2.3077843710780144,0,0,,
286,14025,Jacquier - Didot,-129,30,"48.82953336292279,2.318179272115231",48.82953336292279,2.318179272115231,0,2,0.0,1.0
287,14026,Plantes - Moulin Vert,-37,45,"48.83005755305626,2.3232302069664006",48.83005755305626,2.3232302069664006,1,3,0.25,0.75
288,14027,Gergovie - Alésia,-62,36,"48.83088717455243,2.318882101207347",48.83088717455243,2.318882101207347,2,1,0.67,0.33
289,14028,Alésia - Suisses,-136,47,"48.831682520717614,2.3149869226003754",48.831682520717614,2.3149869226003754,0,0,,
290,14030,Pernety - Raymond Losserand,-68,32,"48.83425462795304,2.317609339386963",48.83425462795304,2.317609339386963,0,0,,
291,14031,Didot - Place de Moro-Giafferi,-25,22,"48.8337,2.3215",48.8337,2.3215,0,1,0.0,1.0
292,14032,Mairie du 14ème,-34,32,"48.83254578122993,2.325492314994335",48.83254578122993,2.325492314994335,0,1,0.0,1.0
293,14034,Ouest - Château,-150,23,"48.83617286014242,2.319392143923804",48.83617286014242,2.319392143923804,0,3,0.0,1.0
294,14035,Maine - Jean Zay,-74,50,"48.837925263897674,2.3225428909063344",48.837925263897674,2.3225428909063344,0,4,0.0,1.0
295,14036,Boulard - Daguerre,-141,45,"48.83446472680611,2.3293386027216907",48.83446472680611,2.3293386027216907,0,0,,
296,14101,Gare Montparnasse - Edgar Quinet,-208,33,"48.841487851078895,2.3233232282800524",48.841487851078895,2.3233232282800524,9,4,0.69,0.31
297,14103,Maine - Liancourt,-163,27,"48.835064363954,2.323731449973991",48.835064363954,2.323731449973991,0,2,0.0,1.0
298,14104,Boyer-Barret - Raymond Losserand,-58,23,"48.83329880233322,2.3173383995890617",48.83329880233322,2.3173383995890617,1,0,1.0,0.0
299,14106,Marc Sangnier - Porte de Vanves,-72,21,"48.825218683556734,2.3107116669416428",48.825218683556734,2.3107116669416428,4,3,0.57,0.43
300,14108,Le Brix et Mesmin - Jourdan,-109,21,"48.82234096593411,2.327861653302471",48.82234096593411,2.327861653302471,0,1,0.0,1.0
301,14110,Abbé Carton - Plantes,-34,25,"48.827673823165846,2.320918142795563",48.827673823165846,2.320918142795563,0,3,0.0,1.0
302,14111,Cassini - Denfert-Rochereau,-184,25,"48.83752583906732,2.336035408079624",48.83752583906732,2.336035408079624,1,1,0.5,0.5
303,14112,Méchain - Faubourg Saint-Jacques,-99,16,"48.83586772099485,2.33798034198275",48.83586772099485,2.33798034198275,0,2,0.0,1.0
304,14113,Santé - Arago,-108,38,"48.83507657562064,2.3415737262044938",48.83507657562064,2.3415737262044938,0,2,0.0,1.0
305,14116,Romain Rolland,-34,25,"48.820215229662765,2.3234144234418346",48.820215229662765,2.3234144234418346,0,0,,
306,14117,Gare Montparnasse - René Mouchotte,-196,39,"48.83920384329242,2.320883944630623",48.83920384329242,2.320883944630623,2,5,0.29,0.71
307,14122,Colonel Monteil - Brune,-27,19,"48.8265029331101,2.30927479982717",48.8265029331101,2.30927479982717,2,1,0.67,0.33
308,14124,David Weill - Parc Montsouris,16,22,"48.821092374256104,2.333725690841675",48.821092374256104,2.333725690841675,0,0,,
309,14125,Dareau - Broussais,-32,24,"48.8307758,2.3361804",48.8307758,2.3361804,1,2,0.33,0.67
310,14127,Odessa - Départ,-172,39,"48.842885590080826,2.3244281485676765",48.842885590080826,2.3244281485676765,5,13,0.28,0.72
311,14128,Gergovie - Vercingétorix,-28,29,"48.83453413883994,2.313154547426182",48.83453413883994,2.313154547426182,1,1,0.5,0.5
312,14130,Jonquoy - Didot,-20,30,"48.82890454823947,2.31648076325655",48.82890454823947,2.31648076325655,0,0,,
313,14131,Jourdan - Monticelli,-94,30,"48.822032,2.329095",48.822032,2.329095,1,6,0.14,0.86
314,14132,Bézout - Général Leclerc,-48,30,"48.82884804502439,2.3285973072052",48.82884804502439,2.3285973072052,0,1,0.0,1.0
315,14133,Froidevaux - Boulard,-46,35,"48.83514731962543,2.3294411972165108",48.83514731962543,2.3294411972165108,1,0,1.0,0.0
316,14134,Château - Place de Catalogne,-179,33,"48.836805542262134,2.3185293003916745",48.836805542262134,2.3185293003916745,0,2,0.0,1.0
317,14135,Jourdan - Cité Universitaire,-79,39,"48.819897343156676,2.3397007964124366",48.819897343156676,2.3397007964124366,1,2,0.33,0.67
318,14136,Auguste Cain - Jean Moulin,-60,40,"48.82577028927573,2.3210415244102482",48.82577028927573,2.3210415244102482,0,0,,
319,14137,Maurice d'Ocagne - General Maudhuy,-89,30,"48.82414282524159,2.3158789426088333",48.82414282524159,2.3158789426088333,0,1,0.0,1.0
320,14138,Porte de Vanves,-29,32,"48.82801284944511,2.3056878894567485",48.82801284944511,2.3056878894567485,8,7,0.53,0.47
321,14139,Pierre Larousse - Raymond Losserand,-4,30,"48.83059564231877,2.3119183257222176",48.83059564231877,2.3119183257222176,1,0,1.0,0.0
322,15001,Gare Montparnasse - Arrivée,34,43,"48.843827994314886,2.3225811123847966",48.843827994314886,2.3225811123847966,7,32,0.18,0.82
323,15002,Maine - Antoine Bourdelle,-24,17,"48.84308531746595,2.320263946784738",48.84308531746595,2.320263946784738,1,8,0.11,0.89
324,15003,Gare Montparnasse - Vaugirard,-288,66,"48.8418071798797,2.31951002690117",48.8418071798797,2.31951002690117,14,39,0.26,0.74
325,15004,Vaugirard - Pasteur,-40,21,"48.84040868803496,2.3154367133975033",48.84040868803496,2.3154367133975033,3,0,1.0,0.0
326,15006,Cherche-Midi - Hôpital Necker,60,38,"48.84461063309956,2.317914068698883",48.84461063309956,2.317914068698883,3,11,0.21,0.79
327,15008,Sèvres - Lecourbe,-56,62,"48.8447677,2.3110086",48.8447677,2.3110086,42,9,0.82,0.18
328,15009,Suffren - Pérignon,55,46,"48.84717561492764,2.307052147596786",48.84717561492764,2.307052147596786,5,3,0.62,0.38
329,15010,Square Cambronne,-64,59,"48.847566545259745,2.3025691509246826",48.847566545259745,2.3025691509246826,34,4,0.89,0.11
330,15011,Cambronne - Villa Croix Nivert,24,62,"48.84584756136587,2.3017574474215508",48.84584756136587,2.3017574474215508,18,3,0.86,0.14
331,15012,Cambronne - Mademoiselle,63,67,"48.843277330035214,2.30230766886348",48.843277330035214,2.30230766886348,36,1,0.97,0.03
332,15013,Volontaire - Lecourbe,91,31,"48.8435137879902,2.3065522313117985",48.8435137879902,2.3065522313117985,2,3,0.4,0.6
333,15014,Volontaires - Vaugirard,-163,34,"48.84132050184004,2.30808901725357",48.84132050184004,2.30808901725357,5,2,0.71,0.29
334,15017,Place Falguière,-2,23,"48.83629973941847,2.3104464635252953",48.83629973941847,2.3104464635252953,0,0,,
335,15018,Dutot - Place Alleray,-110,56,"48.83682609176588,2.307170109557766",48.83682609176588,2.307170109557766,5,3,0.62,0.38
336,15019,Paul Barruel - Vaugirard,-63,39,"48.84014918546239,2.3044332861900334",48.84014918546239,2.3044332861900334,7,0,1.0,0.0
337,15020,Mairie du 15ème,110,32,"48.8417762,2.2986539",48.8417762,2.2986539,17,3,0.85,0.15
338,15021,Joseph Liouville - Croix Nivert,-46,64,"48.844835471244416,2.297508493065834",48.844835471244416,2.297508493065834,8,2,0.8,0.2
339,15022,Emile Zola - Fondary,22,42,"48.847051143113745,2.2953405976295476",48.847051143113745,2.2953405976295476,25,4,0.86,0.14
340,15023,La Motte-Picquet - Grenelle,12,34,"48.84858321339195,2.299347817897797",48.84858321339195,2.299347817897797,10,2,0.83,0.17
341,15024,Suffren - La Motte-Piquet,36,23,"48.85088123091874,2.301219999790192",48.85088123091874,2.301219999790192,1,3,0.25,0.75
342,15025,Dupleix - du Guesclin,75,47,"48.85147910413369,2.296709530055523",48.85147910413369,2.296709530055523,27,6,0.82,0.18
343,15026,Bir Hakeim,49,33,"48.853844054333514,2.289705348222022",48.853844054333514,2.289705348222022,19,0,1.0,0.0
344,15027,Duhamel - André Gide,-47,20,"48.8365662244334,2.312707121097412",48.8365662244334,2.312707121097412,0,0,,
345,15029,Emeriau - Place de Brazzaville,49,51,"48.850785261674964,2.2871585190296173",48.850785261674964,2.2871585190296173,32,5,0.86,0.14
346,15030,Emeriau - Beaugrenelle,152,74,"48.84791249714942,2.2843059897422795",48.84791249714942,2.2843059897422795,59,6,0.91,0.09
347,15031,Théâtre - Lourmel,124,53,"48.8482070397636,2.2898658737540245",48.8482070397636,2.2898658737540245,38,4,0.9,0.1
348,15032,Félix Faure - Lourmel,108,58,"48.83868901709515,2.2818081825971603",48.83868901709515,2.2818081825971603,45,10,0.82,0.18
349,15033,Place Violet,95,30,"48.84487893836502,2.2905756533145905",48.84487893836502,2.2905756533145905,19,3,0.86,0.14
350,15034,Lakanal - Commerce,-52,53,"48.84442462786544,2.294059172272682",48.84442462786544,2.294059172272682,47,0,1.0,0.0
351,15035,Place Etienne Pernet,49,43,"48.84243457133779,2.2921819612383847",48.84243457133779,2.2921819612383847,20,19,0.51,0.49
352,15036,Croix Nivert - Square Saint-Lambert,0,47,"48.8430515215905,2.295200452208519",48.8430515215905,2.295200452208519,40,3,0.93,0.07
353,15038,Place Adolphe Cherioux - Vaugirard,68,63,"48.83959442800459,2.3010657727718353",48.83959442800459,2.3010657727718353,16,10,0.62,0.38
354,15039,Abbé Groult - Convention,-11,12,"48.83596927866069,2.302064039509349",48.83596927866069,2.302064039509349,1,3,0.25,0.75
355,15040,Saint-Amand - Labrouste,-160,36,"48.834097274832295,2.3087677359581",48.834097274832295,2.3087677359581,0,2,0.0,1.0
356,15041,Franquet - Labrouste,-116,37,"48.83287705011431,2.306762784719467",48.83287705011431,2.306762784719467,1,1,0.5,0.5
357,15042,Henry Farman,83,16,"48.83372430280548,2.2713854536414146",48.83372430280548,2.2713854536414146,13,3,0.81,0.19
358,15043,Brancion - Lefebvre,29,11,"48.82900222785569,2.301431038163409",48.82900222785569,2.301431038163409,3,7,0.3,0.7
359,15044,Dantzig - Lefebvre,-243,33,"48.83013921586756,2.295934036374092",48.83013921586756,2.295934036374092,8,24,0.25,0.75
360,15045,Porte de la Plaine,-127,35,"48.82805169605981,2.2924277186393742",48.82805169605981,2.2924277186393742,12,23,0.34,0.66
361,15046,Parc Georges Brassens - Brancion,-54,29,"48.83227829269761,2.3022570088505745",48.83227829269761,2.3022570088505745,1,5,0.17,0.83
362,15047,Morillons - Dantzig,-62,52,"48.83310149953933,2.299380004405976",48.83310149953933,2.299380004405976,21,30,0.41,0.59
363,15049,Porte de Versailles,9,0,"48.83215381734912,2.2871491312980647",48.83215381734912,2.2871491312980647,0,0,,
364,15050,Dominique Pado - Croix Nivert,88,22,"48.83648798164934,2.2897250577807426",48.83648798164934,2.2897250577807426,15,5,0.75,0.25
365,15052,Convention - Vaugirard,71,48,"48.83767682233156,2.295586926020252",48.83767682233156,2.295586926020252,37,7,0.84,0.16
366,15053,Lecourbe - Convention,14,46,"48.83923319241899,2.2915197908878326",48.83923319241899,2.2915197908878326,26,18,0.59,0.41
367,15054,Lecourbe - Jean Maridor,96,19,"48.83796366147599,2.2877392172813416",48.83796366147599,2.2877392172813416,17,1,0.94,0.06
368,15055,Vasco de Gama,60,54,"48.83671783466264,2.283664085650799",48.83671783466264,2.283664085650799,42,10,0.81,0.19
369,15056,Place Balard,186,22,"48.836395736424116,2.2784192115068436",48.836395736424116,2.2784192115068436,26,14,0.65,0.35
370,15057,Lucien Bossoutrot - Général Martial Vallin,30,39,"48.83695604631085,2.274107225239277",48.83695604631085,2.274107225239277,26,13,0.67,0.33
371,15058,Place du Moulin de Javel,21,45,"48.84021670922037,2.2716060653328896",48.84021670922037,2.2716060653328896,8,4,0.67,0.33
372,15059,Parc André Citroën,62,65,"48.840639944296655,2.2780618071556096",48.840639944296655,2.2780618071556096,43,15,0.74,0.26
373,15060,Place de la Montagne du Goulet,71,21,"48.8443415,2.2773844",48.8443415,2.2773844,13,0,1.0,0.0
374,15061,Square Desnouettes,66,22,"48.83476837934194,2.284142297394666",48.83476837934194,2.284142297394666,19,3,0.86,0.14
375,15062,Convention - Lourmel,139,36,"48.84205504165568,2.2859910875558853",48.84205504165568,2.2859910875558853,24,6,0.8,0.2
376,15063,Convention - Saint-Charles,104,19,"48.84315611111599,2.2831090539693832",48.84315611111599,2.2831090539693832,7,1,0.88,0.12
377,15064,Javel - André Citroën,42,45,"48.846276485475,2.2786368057131767",48.846276485475,2.2786368057131767,27,4,0.87,0.13
378,15067,Desaix - Edgar Faure,97,12,"48.852804604940296,2.293077029857222",48.852804604940296,2.293077029857222,1,1,0.5,0.5
379,15068,Général Martial Valin - Pont du Garigliano,-25,16,"48.83823094269141,2.270506024360657",48.83823094269141,2.270506024360657,7,6,0.54,0.46
380,15069,Félix Faure - Convention,76,44,"48.841249336041045,2.288386600849503",48.841249336041045,2.288386600849503,34,3,0.92,0.08
381,15070,Balard - Montagne de la Fage,77,36,"48.83850740333351,2.2782871127128606",48.83850740333351,2.2782871127128606,28,6,0.82,0.18
382,15072,Place Fernand Forest,85,33,"48.849269143835926,2.2818631678819656",48.849269143835926,2.2818631678819656,21,5,0.81,0.19
383,15102,Square Bela Bartok,40,24,"48.85120156830401,2.2846536710858345",48.85120156830401,2.2846536710858345,21,1,0.95,0.05
384,15103,Cauchy - Cévennes,108,51,"48.8433725710224,2.275132834911347",48.8433725710224,2.275132834911347,35,10,0.78,0.22
385,15104,Hôpital Européen Georges Pompidou,61,64,"48.83769531916335,2.275374233722687",48.83769531916335,2.275374233722687,47,16,0.75,0.25
386,15105,Fédération - Suffren,73,25,"48.852828153442346,2.2978776320815086",48.852828153442346,2.2978776320815086,3,1,0.75,0.25
387,15106,Grenelle - Violet,131,35,"48.84993035512154,2.294612042605877",48.84993035512154,2.294612042605877,15,3,0.83,0.17
388,15107,Palais des Sports,145,22,"48.83346851742578,2.2858720645308495",48.83346851742578,2.2858720645308495,6,15,0.29,0.71
389,15108,Lourmel - Marie Skobtsov,63,22,"48.844974,2.287283",48.844974,2.287283,12,2,0.86,0.14
390,15109,Cevennes - Bergers,106,29,"48.84240765130395,2.281037718057633",48.84240765130395,2.281037718057633,10,3,0.77,0.23
391,15110,Place Robert Guillemard,41,24,"48.836191728066666,2.2811267160086417",48.836191728066666,2.2811267160086417,19,2,0.9,0.1
392,15111,Olivier de Serres - Leriche,-17,25,"48.83460221715206,2.2957482933998112",48.83460221715206,2.2957482933998112,13,9,0.59,0.41
393,15112,Vigée-Lebrun - Anselme Payen,-30,24,"48.838683941628375,2.3110422492027287",48.838683941628375,2.3110422492027287,0,3,0.0,1.0
394,15113,Arsonval - Falguière,-38,25,"48.84040040365445,2.313117867297474",48.84040040365445,2.313117867297474,1,0,1.0,0.0
395,15114,Pasteur - Cotentin,-182,33,"48.8389284,2.316356",48.8389284,2.316356,7,7,0.5,0.5
396,15120,Colonel Pierre Avia,70,29,"48.8296843300915,2.275342586850291",48.8296843300915,2.275342586850291,19,9,0.68,0.32
397,15122,Place Charles Vallin,25,26,"48.83552381204077,2.302598655223847",48.83552381204077,2.302598655223847,9,6,0.6,0.4
398,15123,Commerce - Letellier,84,44,"48.84797660373612,2.2966245196598805",48.84797660373612,2.2966245196598805,26,4,0.87,0.13
399,15125,Parc Suzanne Lenglen,9,52,"48.833250690537874,2.2765403240919113",48.833250690537874,2.2765403240919113,41,9,0.82,0.18
400,15127,Place Charles Michels,120,37,"48.846401,2.28502",48.846401,2.28502,21,1,0.95,0.05
401,15128,Cadix - Hameau,30,37,"48.8340107632249,2.289516180753708",48.8340107632249,2.289516180753708,17,19,0.47,0.53
402,15129,Hôpital Necker,-33,40,"48.846043490118454,2.313245013356209",48.846043490118454,2.313245013356209,4,6,0.4,0.6
403,15131,Charles Lecocq - Lecourbe,15,30,"48.84044,2.294867",48.84044,2.294867,16,5,0.76,0.24
404,15132,Bargue -  Dutot,0,21,"48.837884,2.308876",48.837884,2.308876,0,1,0.0,1.0
405,15133,Saint Lambert - Blomet,63,27,"48.83659148147257,2.2930556908249855",48.83659148147257,2.2930556908249855,18,9,0.67,0.33
406,15201,Place Amédée Gordini - Lefebvre,-147,38,"48.83061737745046,2.2920634208276174",48.83061737745046,2.2920634208276174,18,18,0.5,0.5
407,15311,Quai du Président Roosevelt - Pont Aval,26,30,"48.8343883676388,2.2656820714473724",48.8343883676388,2.2656820714473724,12,2,0.86,0.14
408,16001,Portugais - Kléber,-45,26,"48.8712148,2.2937349",48.8712148,2.2937349,1,4,0.2,0.8
409,16002,Pergolèse - Malakoff,-2,38,"48.87521088779225,2.2842781618237495",48.87521088779225,2.2842781618237495,0,1,0.0,1.0
410,16003,André Maurois - Joseph et Marie Hackin,2,29,"48.8778983,2.2789591",48.8778983,2.2789591,6,4,0.6,0.4
411,16005,Raymond Poincaré - Place Victor Hugo,-2,25,"48.870306124369975,2.285074541420228",48.870306124369975,2.285074541420228,0,0,,
412,16007,Longchamp - Place d'Iéna,-11,40,"48.86491723343388,2.2926748171448708",48.86491723343388,2.2926748171448708,3,9,0.25,0.75
413,16008,Galilée - Kléber,-84,33,"48.86741186571367,2.290781380114821",48.86741186571367,2.290781380114821,1,2,0.33,0.67
414,16009,Saint-Didier - Raymond Poincaré,-38,17,"48.86642312020962,2.285863497192411",48.86642312020962,2.285863497192411,0,3,0.0,1.0
415,16010,Belles Feuilles - Place de Mexico,-7,23,"48.86580474647378,2.282920628786087",48.86580474647378,2.282920628786087,0,0,,
416,16011,Victor Hugo - La Pompe,-45,41,"48.86795222470859,2.28146318346262",48.86795222470859,2.28146318346262,0,2,0.0,1.0
417,16013,Mairie du 16ème,-100,35,"48.863936848471994,2.2765953093767166",48.863936848471994,2.2765953093767166,2,0,1.0,0.0
418,16014,Eylau - Trocadéro,-62,24,"48.863354122370744,2.2864209115505223",48.863354122370744,2.2864209115505223,3,2,0.6,0.4
419,16015,Bassano -  Iéna,-28,15,"48.868144510482075,2.296149600985935",48.868144510482075,2.296149600985935,1,0,1.0,0.0
420,16016,Paul Doumer - La Tour,-120,34,"48.860116109626574,2.280840481911055",48.860116109626574,2.280840481911055,0,1,0.0,1.0
421,16017,Siam - La Pompe,-25,16,"48.861720329027264,2.275346568555312",48.861720329027264,2.275346568555312,0,0,,
422,16018,Flandrin - Henri Martin,-26,18,"48.8643275,2.2724174",48.8643275,2.2724174,0,0,,
423,16019,Porte de la Muette,-36,36,"48.86302317841182,2.2687188170157406",48.86302317841182,2.2687188170157406,0,2,0.0,1.0
424,16020,Place de la Porte de Passy,-36,36,"48.857341095470794,2.2644165538827115",48.857341095470794,2.2644165538827115,6,3,0.67,0.33
425,16021,François Ponsard - La Muette,-157,23,"48.8583666,2.2744515",48.8583666,2.2744515,1,3,0.25,0.75
426,16022,Jean Bologne - Passy,-135,19,"48.857566889784465,2.280027395306772",48.857566889784465,2.280027395306772,0,0,,
427,16023,Passy - Place du Costa Rica,-153,33,"48.8584893,2.2839655",48.8584893,2.2839655,13,10,0.57,0.43
428,16024,Ranelagh - Maison de la Radio,74,22,"48.85293603169479,2.280449643731117",48.85293603169479,2.280449643731117,5,1,0.83,0.17
429,16025,Jean de la Fontaine - Boulainvilliers,19,68,"48.85264791461651,2.2758664190769196",48.85264791461651,2.2758664190769196,7,4,0.64,0.36
430,16026,Ranelagh - Mozart,22,23,"48.8554439,2.2704418",48.8554439,2.2704418,3,2,0.6,0.4
431,16027,Mozart - Jasmin,-127,62,"48.85286124871689,2.268483570651513",48.85286124871689,2.268483570651513,2,3,0.4,0.6
432,16029,Maison de Radio - France,-7,47,"48.85132886434057,2.277785539627075",48.85132886434057,2.277785539627075,15,3,0.83,0.17
433,16030,Place de Barcelone - Mirabeau,57,55,"48.84762302736417,2.2735664248466496",48.84762302736417,2.2735664248466496,19,0,1.0,0.0
434,16031,Vignes - Boulainvilliers,-68,21,"48.856399483950504,2.275240458548069",48.856399483950504,2.275240458548069,2,0,1.0,0.0
435,16032,Eglise d'Auteuil,20,21,"48.84749841771691,2.26848387135299",48.84749841771691,2.26848387135299,0,0,,
436,16033,Marché d'Auteuil,-12,32,"48.84842761367387,2.265253821160005",48.84842761367387,2.265253821160005,10,1,0.91,0.09
437,16034,Porte d'Auteuil,68,33,"48.8479394142243,2.2608396783471107",48.8479394142243,2.2608396783471107,2,1,0.67,0.33
438,16036,Porte Molitor,94,60,"48.84524763511433,2.2569015249609947",48.84524763511433,2.2569015249609947,3,1,0.75,0.25
439,16037,Molitor - Michel-Ange,-35,52,"48.845182081538034,2.26211277356597",48.845182081538034,2.26211277356597,0,1,0.0,1.0
440,16038,Molitor - Chardon-Lagache,-37,34,"48.84520880183234,2.2656840831041336",48.84520880183234,2.2656840831041336,1,0,1.0,0.0
441,16039,Exelmans - Versailles,-56,49,"48.84097491091973,2.264390252530575",48.84097491091973,2.264390252530575,3,3,0.5,0.5
442,16040,Exelmans - Michel-Ange,83,33,"48.84309486651855,2.2597770800669053",48.84309486651855,2.2597770800669053,0,2,0.0,1.0
443,16041,Versailles - Claude Terrasse,18,46,"48.84021933807409,2.263834191152959",48.84021933807409,2.263834191152959,4,4,0.5,0.5
444,16042,Murat - Porte de Saint-Cloud,52,38,"48.83750862621299,2.2577651962637906",48.83750862621299,2.2577651962637906,12,2,0.86,0.14
445,16043,Place de Passy,7,15,"48.85780291711202,2.277500546942199",48.85780291711202,2.277500546942199,3,1,0.75,0.25
446,16044,Porte de Saint Cloud - Parc des Princes,24,32,"48.83866275706582,2.2525164484977727",48.83866275706582,2.2525164484977727,4,4,0.5,0.5
447,16101,Malakoff - Place de la Porte Maillot,-40,31,"48.876733496637506,2.2834577411413193",48.876733496637506,2.2834577411413193,0,0,,
448,16102,Pergolèse - Marbeau,-6,27,"48.87356870686902,2.281512522529856",48.87356870686902,2.281512522529856,0,1,0.0,1.0
449,16103,Traktir - Foch,2,22,"48.87275533461363,2.2915497802487077",48.87275533461363,2.2915497802487077,2,5,0.29,0.71
450,16104,Paul Valery - Victor Hugo,-72,35,"48.87137406080164,2.2887128591537476",48.87137406080164,2.2887128591537476,1,1,0.5,0.5
451,16105,Crevaux - Bugeaud,-3,31,"48.870809428669546,2.281149007691853",48.870809428669546,2.281149007691853,0,0,,
452,16107,Benjamin Godard - Victor Hugo,-24,35,"48.865983,2.275725",48.865983,2.275725,2,2,0.5,0.5
453,16108,Sablons - Georges Mandel,-90,38,"48.863875,2.28189",48.863875,2.28189,0,1,0.0,1.0
454,16110,Octave Feuillet - Albéric Magnard,-41,21,"48.86106902949534,2.2730283066630363",48.86106902949534,2.2730283066630363,1,0,1.0,0.0
455,16111,Faustin Hélie - Desbordes-Valmore,-28,33,"48.859403,2.276522",48.859403,2.276522,1,2,0.33,0.67
456,16112,Chernoviz - Raynouard,-80,37,"48.8569864146289,2.282173218142987",48.8569864146289,2.282173218142987,0,0,,
457,16115,Raffet - Montmorency,21,42,"48.85258670812,2.2629252456151954",48.85258670812,2.2629252456151954,1,3,0.25,0.75
458,16116,George Sand - Jean de La Fontaine,12,29,"48.84986918764119,2.268257387525699",48.84986918764119,2.268257387525699,3,2,0.6,0.4
459,16118,Michel-Ange - Parent de Rosan,45,26,"48.840579923690115,2.2584119439125065",48.840579923690115,2.2584119439125065,0,0,,
460,16121,Jardin d'Acclimatation,-9,33,"48.878772242510465,2.270772233605385",48.878772242510465,2.270772233605385,7,10,0.41,0.59
461,16122,Route de la Muette - Porte de Neuilly,-12,50,"48.8798926,2.2587671",48.8798926,2.2587671,11,3,0.79,0.21
462,16123,Mahatma Gandhi,2,26,"48.876356,2.264205",48.876356,2.264205,6,14,0.3,0.7
463,16124,Route de Sèvres - Porte de Bagatelle,-2,66,"48.87525984132485,2.249415814876557",48.87525984132485,2.249415814876557,58,2,0.97,0.03
464,16129,Ceinture du Lac Inferieure - Saint-Cloud,-32,42,"48.86218070933143,2.2617871686816216",48.86218070933143,2.2617871686816216,5,2,0.71,0.29
465,16136,Théophile Gautier - François Millet,36,30,"48.85034821320644,2.273029983043671",48.85034821320644,2.273029983043671,3,4,0.43,0.57
466,16138,Saint-Cloud - Hippodrome,-7,30,"48.85772148887421,2.2549109905958176",48.85772148887421,2.2549109905958176,6,2,0.75,0.25
467,16139,Suresnes - Muette à Neuilly,-4,30,"48.86857040434825,2.266000919044018",48.86857040434825,2.266000919044018,3,3,0.5,0.5
468,17001,Guy Môquet - Saint-Ouen,-48,53,"48.892777719023975,2.3270335793495183",48.892777719023975,2.3270335793495183,3,3,0.5,0.5
469,17003,Jacques Kellner - Saint-Ouen,-69,45,"48.895809485802886,2.327897409164145",48.895809485802886,2.327897409164145,1,0,1.0,0.0
470,17004,Legendre - Clichy,21,40,"48.88896161855884,2.322528975094376",48.88896161855884,2.322528975094376,0,1,0.0,1.0
471,17005,Brochant - Clichy,40,53,"48.89032998912038,2.319730559929781",48.89032998912038,2.319730559929781,0,0,,
472,17006,Guy Môquet - Compoint,42,36,"48.89213559044868,2.32321947813034",48.89213559044868,2.32321947813034,0,0,,
473,17007,Navier - Epinettes,-40,36,"48.89587780769155,2.3226776719093327",48.89587780769155,2.3226776719093327,2,6,0.25,0.75
474,17008,Porte Pouchet-Bessières,17,23,"48.8978765,2.3230632",48.8978765,2.3230632,1,1,0.5,0.5
475,17009,Paul Bodin - Clichy,-55,34,"48.89239614618928,2.317142598330975",48.89239614618928,2.317142598330975,3,1,0.75,0.25
476,17010,Jonquière - Docteur Paul Brousse,49,40,"48.894799816683985,2.318705212173216",48.894799816683985,2.318705212173216,1,2,0.33,0.67
477,17011,Fragonard - Porte de Clichy,105,56,"48.89415563341899,2.314389310777188",48.89415563341899,2.314389310777188,5,1,0.83,0.17
478,17012,Mairie du 17ème,26,24,"48.88416184871573,2.322079431103719",48.88416184871573,2.322079431103719,1,0,1.0,0.0
479,17013,Legendre - Dulong,-49,23,"48.885325169402904,2.316423766314984",48.885325169402904,2.316423766314984,1,1,0.5,0.5
480,17015,Place de Lévis,-46,48,"48.883546851533254,2.3131933808326726",48.883546851533254,2.3131933808326726,0,2,0.0,1.0
481,17016,Brochant - Square des Batignolles,-126,31,"48.88818698581028,2.316861143151153",48.88818698581028,2.316861143151153,0,0,,
482,17017,Gare de Pont-Cardinet,-198,34,"48.88713901475306,2.314494143994255",48.88713901475306,2.314494143994255,1,2,0.33,0.67
483,17018,Parc Monceau,-81,18,"48.88107791412864,2.3095492646098137",48.88107791412864,2.3095492646098137,0,2,0.0,1.0
484,17019,Phalsbourg - Villiers,-90,20,"48.88242307900951,2.3090453445911407",48.88242307900951,2.3090453445911407,2,1,0.67,0.33
485,17020,Jouffroy d'Abbans - Malesherbes,-8,27,"48.8850134,2.3070717",48.8850134,2.3070717,0,0,,
486,17021,Jouffroy d'Abbans - Villiers,-48,34,"48.88421554703737,2.3056533560156827",48.88421554703737,2.3056533560156827,1,1,0.5,0.5
487,17022,Pereire - Place de Wagram,-58,46,"48.887070607581215,2.304111124531457",48.887070607581215,2.304111124531457,0,6,0.0,1.0
488,17023,Porte d'Asnières,10,36,"48.89035817610495,2.3036286234855656",48.89035817610495,2.3036286234855656,0,2,0.0,1.0
489,17024,Villiers - Batignolles,-52,23,"48.88125253846116,2.31653843075037",48.88125253846116,2.31653843075037,3,3,0.5,0.5
490,17025,Chazelles - Courcelles,-23,35,"48.879406604954,2.3034455627202988",48.879406604954,2.3034455627202988,0,1,0.0,1.0
491,17026,Jouffroy d'Abbans - Wagram,8,40,"48.881973298351625,2.301132157444954",48.881973298351625,2.301132157444954,0,1,0.0,1.0
492,17027,Place du Maréchal Juin - Péreire,-25,46,"48.885263,2.298286",48.885263,2.298286,0,0,,
493,17028,Reims - Raymond Pitet,-31,37,"48.8888,2.296319",48.8888,2.296319,2,2,0.5,0.5
494,17029,Pierre Demours - Laugier,6,37,"48.8813072,2.294846",48.8813072,2.294846,0,1,0.0,1.0
495,17030,Pereire - Rennequin,-40,23,"48.88364782887555,2.2952447086572647",48.88364782887555,2.2952447086572647,5,1,0.83,0.17
496,17031,Place de la Porte de Champerret,-43,28,"48.88561741628322,2.290781411279206",48.88561741628322,2.290781411279206,2,0,1.0,0.0
497,17032,Jean Oestreicher - Porte de Champerret,-19,21,"48.88655580065981,2.288640439510346",48.88655580065981,2.288640439510346,0,0,,
498,17036,Place Tristan Bernard,-41,28,"48.8791964,2.2915403",48.8791964,2.2915403,1,1,0.5,0.5
499,17037,Bayen - Pereire,24,22,"48.881804409079656,2.2921088710427284",48.881804409079656,2.2921088710427284,2,4,0.33,0.67
500,17038,Grande Armée - Brunel,14,62,"48.876116,2.288124",48.876116,2.288124,3,2,0.6,0.4
501,17039,Place Saint-Ferdinand,-9,38,"48.87815529789739,2.288518047864942",48.87815529789739,2.288518047864942,2,0,1.0,0.0
502,17040,Pereire - Ternes,-38,48,"48.87973954830735,2.288012132048607",48.87973954830735,2.288012132048607,0,0,,
503,17042,Porte Maillot - Pereire,0,52,"48.877775,2.284444",48.877775,2.284444,0,1,0.0,1.0
504,17044,Porte de Saint-Ouen - Bessières,-181,42,"48.89792240854517,2.32851451022192",48.89792240854517,2.32851451022192,14,12,0.54,0.46
505,17045,Place des Ternes.,-6,46,"48.878438631226516,2.297727763652802",48.878438631226516,2.297727763652802,1,1,0.5,0.5
506,17046,Mac-Mahon - Brey,-28,25,"48.877532084130166,2.294512536052928",48.877532084130166,2.294512536052928,0,7,0.0,1.0
507,17047,Courcelles - Pierre Demours,11,26,"48.883769733273496,2.29858466343129",48.883769733273496,2.29858466343129,2,3,0.4,0.6
508,17048,De Toqueville - Terrasse,-146,30,"48.882428,2.314002",48.882428,2.314002,3,0,1.0,0.0
509,17050,Batignolles - Abel Truchet,-67,28,"48.88310390458221,2.323834749088381",48.88310390458221,2.323834749088381,0,1,0.0,1.0
510,17104,Jardin Marguerite Long,-3,22,"48.8816985773914,2.2836575657129288",48.8816985773914,2.2836575657129288,6,4,0.6,0.4
511,17105,Place Madeleine Daniélou,-14,42,"48.883498,2.282015",48.883498,2.282015,1,5,0.17,0.83
512,17107,Berthier - Place Stuart Merril,-12,37,"48.885927922355044,2.2933450341224675",48.885927922355044,2.2933450341224675,3,1,0.75,0.25
513,17108,Bessières - Porte de Clichy,-61,33,"48.89611762451474,2.31790903955698",48.89611762451474,2.31790903955698,16,2,0.89,0.11
514,17110,Legendre - Nollet,3,30,"48.887742186754224,2.320293079881375",48.887742186754224,2.320293079881375,0,0,,
515,17111,Lemercier - Cardinet,-8,24,"48.890097168851746,2.317377626895905",48.890097168851746,2.317377626895905,3,0,1.0,0.0
516,17116,Reims - Porte d'Asnières,21,26,"48.891834448210986,2.300144659954865",48.891834448210986,2.300144659954865,3,1,0.75,0.25
517,17117,Pereire - Saussure,-30,32,"48.88822907547811,2.310129627585411",48.88822907547811,2.310129627585411,1,2,0.33,0.67
518,17119,Toqueville - Cardinet,-21,33,"48.88490187110713,2.3109393194317818",48.88490187110713,2.3109393194317818,0,0,,
519,17121,Square des Epinettes,15,20,"48.89383909781389,2.325953990221024",48.89383909781389,2.325953990221024,0,0,,
520,17122,Bridaine - Lamandé,-40,29,"48.8862074,2.3206239",48.8862074,2.3206239,0,0,,
521,17123,Mstislav Rostropovitch - Berthier,8,18,"48.892120821173975,2.309234105050564",48.892120821173975,2.309234105050564,8,2,0.8,0.2
522,17124,Porte de Saint-Ouen - Henri Huchard,9,26,"48.898708366365064,2.3295360803604126",48.898708366365064,2.3295360803604126,2,16,0.11,0.89
523,17125,Marie-Georges Picquart - Pereire,-28,32,"48.88863669349711,2.3111706599593163",48.88863669349711,2.3111706599593163,1,1,0.5,0.5
524,18001,Damrémont - Caulaincourt,-232,18,"48.88714509078738,2.3325880989432335",48.88714509078738,2.3325880989432335,0,0,,
525,18003,Cimetière de Montmartre,-241,43,"48.886472466141925,2.3328901827335358",48.886472466141925,2.3328901827335358,0,0,,
526,18004,Place des Abbesses,-39,12,"48.884542726149725,2.3386867716908455",48.884542726149725,2.3386867716908455,3,2,0.6,0.4
527,18005,Tardieu - Chappe,-201,18,"48.88414675978186,2.3418454080820084",48.88414675978186,2.3418454080820084,0,3,0.0,1.0
528,18006,Square Louise Michel,-122,36,"48.88468735450907,2.3441386967897415",48.88468735450907,2.3441386967897415,2,4,0.33,0.67
529,18007,Goutte d'or - Barbès,9,20,"48.88512432362698,2.349696233868599",48.88512432362698,2.349696233868599,1,5,0.17,0.83
530,18008,Square Léon,-37,33,"48.88667396788626,2.353205569088459",48.88667396788626,2.353205569088459,0,3,0.0,1.0
531,18009,Jean-François Lépine - Stephenson,14,22,"48.88611466796807,2.356855627529275",48.88611466796807,2.356855627529275,0,0,,
532,18010,Riquet - Marx Dormoy,133,29,"48.89021003702031,2.3601756244897842",48.89021003702031,2.3601756244897842,0,1,0.0,1.0
533,18011,Pajol - Place Herbert,61,39,"48.8927825,2.3635598",48.8927825,2.3635598,1,2,0.33,0.67
534,18012,Stephenson - Doudeauville,58,36,"48.888537048944826,2.3561610281467438",48.888537048944826,2.3561610281467438,2,1,0.67,0.33
535,18014,Léon - Doudeauville,39,13,"48.88832421845225,2.353573372638597",48.88832421845225,2.353573372638597,0,0,,
536,18015,Custine - Ramey,-193,41,"48.888735896947054,2.3469526693224907",48.888735896947054,2.3469526693224907,1,3,0.25,0.75
537,18016,Francoeur - Caulaincourt,-101,34,"48.8899944409612,2.342529706656933",48.8899944409612,2.342529706656933,0,2,0.0,1.0
538,18017,Caulaincourt - Place Constantin Pecqueur,-228,44,"48.8896779050281,2.33817871442611",48.8896779050281,2.33817871442611,0,1,0.0,1.0
539,18018,Carpeaux - Place Jacques Froment,-24,19,"48.8906542,2.3309428",48.8906542,2.3309428,0,0,,
540,18019,Square Raymond Souplex,-119,52,"48.89183721478911,2.335426103165901",48.89183721478911,2.335426103165901,1,2,0.33,0.67
541,18020,Francoeur - Marcadet,-29,20,"48.89104123261663,2.340014585442034",48.89104123261663,2.340014585442034,0,0,,
542,18021,Marcadet - Ramey,-31,21,"48.890875,2.3449019",48.890875,2.3449019,0,0,,
543,18022,Marcadet - Barbès,-96,37,"48.89045112096476,2.349057392968696",48.89045112096476,2.349057392968696,0,0,,
544,18023,Ordener - Poissonniers,-37,35,"48.891213890844654,2.351288666219873",48.891213890844654,2.351288666219873,0,2,0.0,1.0
545,18024,Clignancourt - Ordener,-70,35,"48.891457726153774,2.348636478060487",48.891457726153774,2.348636478060487,0,0,,
546,18025,Mairie du 18ème,-175,40,"48.892939296937605,2.3445510864257812",48.892939296937605,2.3445510864257812,0,13,0.0,1.0
547,18026,Ruisseau - Ordener,-105,35,"48.89299462568024,2.340144887566567",48.89299462568024,2.340144887566567,0,3,0.0,1.0
548,18027,Damrémont - Ordener,-35,30,"48.893400392981874,2.336266523912805",48.893400392981874,2.336266523912805,1,7,0.12,0.88
549,18028,Championnet - Vauvenargues,-3,33,"48.89401874744574,2.3319872841238976",48.89401874744574,2.3319872841238976,1,0,1.0,0.0
550,18029,Emile Blemont - Poteau,18,39,"48.8943782,2.3415122",48.8943782,2.3415122,0,3,0.0,1.0
551,18030,Joseph Dijon - Ornano,-82,37,"48.89374453351521,2.3476678133010864",48.89374453351521,2.3476678133010864,1,3,0.25,0.75
552,18031,Place Albert Kahn,-98,46,"48.8957969797804,2.345585584134864",48.8957969797804,2.345585584134864,0,3,0.0,1.0
553,18032,Porte de Clignancourt.,-91,56,"48.897488,2.343996",48.897488,2.343996,2,11,0.15,0.85
554,18033,Belliard - Damrémont,-60,34,"48.89669238777841,2.338023450388167",48.89669238777841,2.338023450388167,1,2,0.33,0.67
555,18034,Leibniz - Jean Dollfus,-60,32,"48.896328348515986,2.333390423834684",48.896328348515986,2.333390423834684,2,2,0.5,0.5
556,18035,René Binet - Porte de Montmartre,-6,37,"48.89905109950848,2.3365534096956253",48.89905109950848,2.3365534096956253,17,14,0.55,0.45
557,18038,Rond-Point de la Chapelle,34,49,"48.895126609314104,2.359971106052399",48.895126609314104,2.359971106052399,0,4,0.0,1.0
558,18039,Jardins d'Eole,8,20,"48.8869703,2.3668488",48.8869703,2.3668488,0,0,,
559,18041,Rochechouart - Martyrs,-25,20,"48.88219377957169,2.3405495658516884",48.88219377957169,2.3405495658516884,0,2,0.0,1.0
560,18042,Place Pigalle,-29,21,"48.8827555,2.3361566",48.8827555,2.3361566,1,4,0.2,0.8
561,18043,Clichy - Place Blanche,-32,20,"48.883601088297006,2.333223782479763",48.883601088297006,2.333223782479763,0,2,0.0,1.0
562,18044,Clichy - Douai,-100,32,"48.88411831886975,2.3287287354469304",48.88411831886975,2.3287287354469304,0,0,,
563,18045,Pierre Ginier - Clichy,-8,16,"48.8867667,2.326228",48.8867667,2.326228,0,2,0.0,1.0
564,18046,Etienne Jodelle - Saint Ouen,-162,33,"48.88794016394694,2.326124420314341",48.88794016394694,2.326124420314341,0,0,,
565,18047,St-Ouen - Lamarck,-115,45,"48.891083040295555,2.326735694839291",48.891083040295555,2.326735694839291,0,0,,
566,18049,Porte d'Aubervilliers,24,55,"48.89859661942376,2.3689722642302513",48.89859661942376,2.3689722642302513,7,14,0.33,0.67
567,18101,Championnet.,1,22,"48.8953643,2.3498166",48.8953643,2.3498166,0,1,0.0,1.0
568,18107,Chartres - La Charbonnière,-46,34,"48.8847601,2.3534657",48.8847601,2.3534657,0,2,0.0,1.0
569,18109,Pajol - Riquet,-24,47,"48.88960028134536,2.3628534749150276",48.88960028134536,2.3628534749150276,0,1,0.0,1.0
570,18110,Departement - Pajol,9,19,"48.886674849730184,2.3613611608743668",48.886674849730184,2.3613611608743668,0,1,0.0,1.0
571,18111,Félix Ziem - Armand Gauthier,-71,25,"48.88949630486821,2.333393658804396",48.88949630486821,2.333393658804396,1,1,0.5,0.5
572,18112,Arthur Ranc - Hôpital Bichat,-190,26,"48.8978712500682,2.333521842956543",48.8978712500682,2.333521842956543,6,2,0.75,0.25
573,18113,Lepic - Armée d'Orient,-306,24,"48.88753640381415,2.334307730197907",48.88753640381415,2.334307730197907,0,0,,
574,18114,Véron - Lepic,-138,23,"48.88526123395252,2.334559857845307",48.88526123395252,2.334559857845307,0,0,,
575,18134,Ney - Porte de Clignancourt,-20,25,"48.8978867,2.3458001",48.8978867,2.3458001,2,2,0.5,0.5
576,18135,Ney - Porte de Montmartre,56,24,"48.897918,2.3364872",48.897918,2.3364872,7,5,0.58,0.42
577,18136,Poulet - Barbès,-50,20,"48.887148,2.349064",48.887148,2.349064,0,2,0.0,1.0
578,18137,Poissonniers - Nord,-7,28,"48.892511213520656,2.3522228747606277",48.892511213520656,2.3522228747606277,1,3,0.25,0.75
579,18138,Ney - Charles Hermite,-1,20,"48.89874803977525,2.3645754531025887",48.89874803977525,2.3645754531025887,3,1,0.75,0.25
580,18139,Poissonniers - Championnet,41,28,"48.89543299733937,2.3530178144574165",48.89543299733937,2.3530178144574165,1,1,0.5,0.5
581,18140,Porte de Clignancourt - Ney,157,40,"48.899641123987095,2.344321422278881",48.899641123987095,2.344321422278881,18,12,0.6,0.4
582,18141,Clignancourt - Sofia,19,19,"48.88511992309783,2.34719488842051",48.88511992309783,2.34719488842051,2,3,0.4,0.6
583,18142,Jessaint - Marx Dormoy,-29,30,"48.88484543106364,2.358930408954621",48.88484543106364,2.358930408954621,0,2,0.0,1.0
584,18201,Tristan Tzara -  Tchaïkovski,9,33,"48.89490221746837,2.3648490384221077",48.89490221746837,2.3648490384221077,3,1,0.75,0.25
585,19001,Crimée - Ourcq,-52,56,"48.894104140316266,2.372946088467279",48.894104140316266,2.372946088467279,0,1,0.0,1.0
586,19002,Centquatre,-9,42,"48.88933353845543,2.3707854375243187",48.88933353845543,2.3707854375243187,0,2,0.0,1.0
587,19003,Quai de la Seine,-61,24,"48.884492238407525,2.3703941702842717",48.884492238407525,2.3703941702842717,2,3,0.4,0.6
588,19004,Quai de la Loire - Jean Jaurès,-13,16,"48.88339733854529,2.371074522980134",48.88339733854529,2.371074522980134,5,3,0.62,0.38
589,19005,Flandre - Riquet,0,21,"48.888013281448,2.3737595955229",48.888013281448,2.3737595955229,0,3,0.0,1.0
590,19006,Mathis - Flandre,-10,55,"48.8906429898976,2.3762554675340652",48.8906429898976,2.3762554675340652,1,2,0.33,0.67
591,19007,Flandre - Ourcq,6,30,"48.89260159189023,2.3790915682911873",48.89260159189023,2.3790915682911873,1,1,0.5,0.5
592,19008,Flandre - Alphonse Karr,41,26,"48.89465,2.381868",48.89465,2.381868,6,0,1.0,0.0
593,19009,Cité des Sciences et de l'Industrie,75,30,"48.89659571178903,2.384599149227142",48.89659571178903,2.384599149227142,6,13,0.32,0.68
594,19010,Emile Reynaud - Porte de la Villette,57,22,"48.90098953630053,2.3887022584676743",48.90098953630053,2.3887022584676743,4,2,0.67,0.33
595,19012,Lally-Tollendal - Armand Carrel,-26,28,"48.88270066221072,2.374717555940151",48.88270066221072,2.374717555940151,0,0,,
596,19013,Laumière - Petit,-55,34,"48.88467368538326,2.380039058625698",48.88467368538326,2.380039058625698,2,4,0.33,0.67
597,19014,Lorraine - Jean Jaurès,6,19,"48.8863865,2.3825772",48.8863865,2.3825772,1,2,0.33,0.67
598,19015,Thionville - Ourcq,79,24,"48.88917613743794,2.3833653330802917",48.88917613743794,2.3833653330802917,6,3,0.67,0.33
599,19016,Hautpoul - Jean Jaurès,23,33,"48.88639367943585,2.386541454435452",48.88639367943585,2.386541454435452,1,1,0.5,0.5
600,19019,Petit - Manin,21,22,"48.88650687534334,2.3938155401308374",48.88650687534334,2.3938155401308374,1,3,0.25,0.75
601,19021,Mairie du 19ème,-31,27,"48.88256264247959,2.3812624812126164",48.88256264247959,2.3812624812126164,1,1,0.5,0.5
602,19022,Marché Secrétan,31,26,"48.88125496379482,2.373463287949562",48.88125496379482,2.373463287949562,1,1,0.5,0.5
603,19023,Manin - Simon Bolivar,-174,26,"48.87649965412676,2.379407362599104",48.87649965412676,2.379407362599104,0,0,,
604,19024,Botzaris - Parc des Buttes Chaumont,-71,20,"48.877951,2.381464",48.877951,2.381464,1,2,0.33,0.67
605,19025,Botzaris - Crimée,-139,21,"48.87959698690176,2.3887913337477067",48.87959698690176,2.3887913337477067,1,1,0.5,0.5
606,19026,Place de Rhin et Danube,-48,17,"48.88192765861766,2.392586767673493",48.88192765861766,2.392586767673493,0,0,,
607,19027,Serrurier,-95,18,"48.8804934032465,2.39806417375803",48.8804934032465,2.39806417375803,0,1,0.0,1.0
608,19029,Seine - Flandre,-41,19,"48.886785741479684,2.3746193200349808",48.886785741479684,2.3746193200349808,0,3,0.0,1.0
609,19030,Melun - Jean Jaurès,25,28,"48.8837796723475,2.376477420330048",48.8837796723475,2.376477420330048,0,7,0.0,1.0
610,19031,Manin - Crimée,16,23,"48.8831217743719,2.3863670602440834",48.8831217743719,2.3863670602440834,0,2,0.0,1.0
611,19032,Villette - Belleville,-116,48,"48.872687731400255,2.3764613270759587",48.872687731400255,2.3764613270759587,4,4,0.5,0.5
612,19033,Cambrai - Benjamin Constant,-24,43,"48.89594736851349,2.381133802246315",48.89594736851349,2.381133802246315,0,0,,
613,19036,Hôpital Robert Debré,-131,33,"48.88005222200894,2.4008650346327003",48.88005222200894,2.4008650346327003,0,0,,
614,19037,Belleville - Porte des Lilas,-94,32,"48.87660391892763,2.404769691129476",48.87660391892763,2.404769691129476,0,3,0.0,1.0
615,19038,Lassus - Delouvain,-83,20,"48.87550448459959,2.3890327325518528",48.87550448459959,2.3890327325518528,0,0,,
616,19039,Edouard Pailleron - Simon Bolivar,-100,24,"48.87979886049996,2.374839261174202",48.87979886049996,2.374839261174202,1,2,0.33,0.67
617,19040,Belleville - Télégraphe,-175,41,"48.8756045,2.3995549",48.8756045,2.3995549,0,0,,
618,19041,Belleville - Pyrénées,-313,42,"48.8741908,2.3860039",48.8741908,2.3860039,0,1,0.0,1.0
619,19043,Delphine Seyrig - Général Leclerc,-76,53,"48.893923963057865,2.39790290594101",48.893923963057865,2.39790290594101,6,7,0.46,0.54
620,19044,Grands Moulins de Pantin,-33,50,"48.89738369720229,2.3959985375404362",48.89738369720229,2.3959985375404362,1,9,0.1,0.9
621,19046,Porte de Pantin.,8,33,"48.889199725577164,2.3950181901454926",48.889199725577164,2.3950181901454926,17,12,0.59,0.41
622,19101,Square Simon Bolivar,-115,24,"48.8750898883217,2.3826304078102116",48.8750898883217,2.3826304078102116,1,0,1.0,0.0
623,19102,Rampal - Belleville,-11,17,"48.87302160155955,2.379910983145237",48.87302160155955,2.379910983145237,0,1,0.0,1.0
624,19103,Manin - Carrières d'Amérique,6,20,"48.88467214209463,2.3919698596000676",48.88467214209463,2.3919698596000676,0,1,0.0,1.0
625,19105,Ambroise Rendu - Porte Brunet,6,17,"48.883667,2.395733",48.883667,2.395733,0,1,0.0,1.0
626,19108,Gaston Tessier - Rosa Parks RER,15,37,"48.8963765,2.3743692",48.8963765,2.3743692,0,3,0.0,1.0
627,19109,Tanger - Place du Maroc,14,19,"48.8862524447104,2.3689296841621403",48.8862524447104,2.3689296841621403,1,1,0.5,0.5
628,19110,Square Claude Bernard,42,30,"48.89876016219984,2.375325746834278",48.89876016219984,2.375325746834278,5,10,0.33,0.67
629,19113,Pré Saint-Gervais - Lilas,-150,28,"48.87787062698808,2.39590734243393",48.87787062698808,2.39590734243393,0,1,0.0,1.0
630,19114,Manin - Secrétan,-84,20,"48.8791665,2.3787959",48.8791665,2.3787959,1,7,0.12,0.88
631,19115,Porte de la Villette,-8,27,"48.89835196548483,2.386150136590004",48.89835196548483,2.386150136590004,5,6,0.45,0.55
632,19117,Euryale Dehaynin - Loire,-5,30,"48.886248917304805,2.3774591088294987",48.886248917304805,2.3774591088294987,4,4,0.5,0.5
633,19118,Simon Bolivar - Henri Turot,-101,22,"48.876887,2.374454",48.876887,2.374454,0,2,0.0,1.0
634,19119,Edouard Pailleron - Bouret,-116,27,"48.880597694070524,2.3769494891166687",48.880597694070524,2.3769494891166687,0,2,0.0,1.0
635,19120,Carducci - Place Hannah Arendt,-126,27,"48.877436681515796,2.3860743641853337",48.877436681515796,2.3860743641853337,0,1,0.0,1.0
636,19121,Belleville -  Pré Saint-Gervais,-159,21,"48.875565910073085,2.3930460959672923",48.875565910073085,2.3930460959672923,0,0,,
637,19123,Metz - Marne,-12,33,"48.891163,2.3865705",48.891163,2.3865705,19,10,0.66,0.34
638,19124,Alexander Fleming - Belvédère,-39,31,"48.88179064200294,2.4030599377642674",48.88179064200294,2.4030599377642674,0,1,0.0,1.0
639,19125,Place de l'Édit de Nantes,-46,30,"48.88879,2.3785",48.88879,2.3785,7,3,0.7,0.3
640,19127,Aubervilliers - Curial,43,23,"48.89088305227546,2.3688579350709915",48.89088305227546,2.3688579350709915,0,1,0.0,1.0
641,19128,Quai de l'Oise - Aisne,-2,30,"48.8906231,2.3833701",48.8906231,2.3833701,1,5,0.17,0.83
642,19129,Solitaires - Place des Fêtes,-181,29,"48.876601,2.391769",48.876601,2.391769,0,1,0.0,1.0
643,19130,Place Paul Delouvrier,14,26,"48.89197621431365,2.3851288855075836",48.89197621431365,2.3851288855075836,8,5,0.62,0.38
644,19201,Petit - Georges Thill,4,23,"48.88603131999171,2.3895753175020222",48.88603131999171,2.3895753175020222,1,1,0.5,0.5
645,20001,Place de la Nation - Charonne,-59,36,"48.848364667776785,2.399762385981272",48.848364667776785,2.399762385981272,6,7,0.46,0.54
646,20002,Square de la rue Pixérécourt,-79,15,"48.8736824,2.3960278",48.8736824,2.3960278,1,0,1.0,0.0
647,20003,Pyrénées - Cours de Vincennes,67,21,"48.84779677993506,2.406172156333924",48.84779677993506,2.406172156333924,1,3,0.25,0.75
648,20004,Commandant l'Herminier - Gallieni,-18,17,"48.847040552603,2.4160453677177",48.847040552603,2.4160453677177,0,0,,
649,20005,Reynaldo Hahn - Lagny,-43,19,"48.849266043601794,2.412330328844772",48.849266043601794,2.412330328844772,2,0,1.0,0.0
650,20006,Pyrénées - Plaine,5,12,"48.85026702458012,2.4062821269035344",48.85026702458012,2.4062821269035344,0,0,,
651,20007,Buzenval - Avron,31,50,"48.851617204998654,2.401513597307666",48.851617204998654,2.401513597307666,1,0,1.0,0.0
652,20008,Pyrénées - Avron,-17,32,"48.853246898211985,2.405871044529538",48.853246898211985,2.405871044529538,0,3,0.0,1.0
653,20009,Docteurs Déjérine - Pte de Montreuil,-4,20,"48.85398448133697,2.41208288897222",48.85398448133697,2.41208288897222,1,0,1.0,0.0
654,2001,Greneta - Sebastopol,26,32,"48.86524233322809,2.3516669869422917",48.86524233322809,2.3516669869422917,17,10,0.63,0.37
655,20010,Sorbier - Gasnier-Guy,-236,34,"48.86521763101122,2.39365965127945",48.86521763101122,2.39365965127945,0,1,0.0,1.0
656,20011,Pyrénées - Dagorno,29,20,"48.855425770695085,2.4051643162965775",48.855425770695085,2.4051643162965775,0,0,,
657,20012,Buzenval - Vignoles,-13,17,"48.85385817168762,2.400004081428051",48.85385817168762,2.400004081428051,0,1,0.0,1.0
658,20013,Alexandre Dumas - Place de la Réunion,-24,45,"48.85533710742046,2.3997703687646292",48.85533710742046,2.3997703687646292,0,2,0.0,1.0
659,20014,Charonne - Alexandre Dumas,-252,35,"48.85607741505607,2.394869327545166",48.85607741505607,2.394869327545166,1,1,0.5,0.5
660,20015,Bagnolet - Orteaux,-51,36,"48.85708641027236,2.3984125256538396",48.85708641027236,2.3984125256538396,0,1,0.0,1.0
661,20016,Pyrénées - Maraîchers,-7,19,"48.85714001395299,2.4043509364128113",48.85714001395299,2.4043509364128113,1,1,0.5,0.5
662,20017,Saint-Blaise - Mouraud,-35,27,"48.85696177597818,2.40869477391243",48.85696177597818,2.40869477391243,0,1,0.0,1.0
663,20019,Place du Maquis du Vercors,-223,31,"48.877321579493575,2.4083782732486725",48.877321579493575,2.4083782732486725,0,3,0.0,1.0
664,2002,Etienne Marcel - Montorgueil,41,28,"48.86450567259199,2.3461959511041637",48.86450567259199,2.3461959511041637,3,10,0.23,0.77
665,20020,Pyrénées - Charles Renouvier,-256,29,"48.86095933229224,2.400421852042113",48.86095933229224,2.400421852042113,0,0,,
666,20021,Indre - Prairies,-140,38,"48.86254398506782,2.403290458023548",48.86254398506782,2.403290458023548,0,2,0.0,1.0
667,20022,Porte de Bagnolet,-202,33,"48.864707139122984,2.408344637349607",48.864707139122984,2.408344637349607,1,1,0.5,0.5
668,20023,Pelleport - Belgrand,-64,15,"48.86500081847653,2.403980836377493",48.86500081847653,2.403980836377493,0,0,,
669,20024,Gambetta - Père Lachaise,-211,29,"48.864295696165875,2.398228667282044",48.864295696165875,2.398228667282044,0,0,,
670,20027,Porte de Ménilmontant,-70,15,"48.8691543609174,2.40932246879487",48.8691543609174,2.40932246879487,0,0,,
671,20029,Frères Flavien - Porte des Lilas,-244,23,"48.8780992764359,2.41104629853209",48.8780992764359,2.41104629853209,0,1,0.0,1.0
672,2003,Saint-Denis - Réaumur,37,32,"48.8661116315789,2.3507790675507594",48.8661116315789,2.3507790675507594,11,10,0.52,0.48
673,20030,Ménilmontant - Père Lachaise,-108,56,"48.86328729150227,2.3869940266013145",48.86328729150227,2.3869940266013145,1,1,0.5,0.5
674,20032,Square des Amandiers,21,12,"48.86615630668046,2.3891324177384377",48.86615630668046,2.3891324177384377,0,2,0.0,1.0
675,20033,Etienne Dolet - Place Maurice Chevalier,-10,33,"48.86798303359366,2.3851405311143026",48.86798303359366,2.3851405311143026,0,3,0.0,1.0
676,20034,Sorbier - Ménilmontant,-192,24,"48.86854239566069,2.3897721245884895",48.86854239566069,2.3897721245884895,0,1,0.0,1.0
677,20035,Pyrénées - Ménilmontant,-285,26,"48.8693268535238,2.395084574818611",48.8693268535238,2.395084574818611,0,1,0.0,1.0
678,20036,Ménilmontant - Pelleport,-82,19,"48.87068263384462,2.398959602331646",48.87068263384462,2.398959602331646,1,0,1.0,0.0
679,20037,Gambetta - Saint Fargeau,-220,24,"48.871244610447015,2.4039056897163396",48.871244610447015,2.4039056897163396,0,1,0.0,1.0
680,20039,Belleville - Couronnes,-66,50,"48.86883108287741,2.380986213684082",48.86883108287741,2.380986213684082,0,1,0.0,1.0
681,2004,Square Pierre Lazareff,64,17,"48.867141720745806,2.348393350839615",48.867141720745806,2.348393350839615,6,0,1.0,0.0
682,20040,Parc de Belleville - Julien Lacroix,-1,26,"48.8703459,2.3842214",48.8703459,2.3842214,0,0,,
683,20042,Pyrénées - Emmery,-220,40,"48.872010281270974,2.392039597034455",48.872010281270974,2.392039597034455,0,0,,
684,20043,Charonne - Avron,-4,27,"48.85160266522164,2.398403047037931",48.85160266522164,2.398403047037931,2,2,0.5,0.5
685,20044,Davout - Volga,3,28,"48.852919679957296,2.410522909779111",48.852919679957296,2.410522909779111,0,4,0.0,1.0
686,20045,Louis Ganne - Davout,-57,30,"48.86338720692607,2.409725748002529",48.86338720692607,2.409725748002529,0,2,0.0,1.0
687,20047,Cours de Vincennes - Davout,-73,48,"48.847238029965595,2.4107042336224986",48.847238029965595,2.4107042336224986,1,2,0.33,0.67
688,20048,Bagnolet - Place Saint-Blaise,-77,28,"48.85973,2.40334",48.85973,2.40334,1,2,0.33,0.67
689,2005,Montmartre - Etienne Marcel,16,16,"48.865021945810085,2.345068440144759",48.865021945810085,2.345068440144759,6,7,0.46,0.54
690,2006,Place des Victoires,15,24,"48.8660354,2.3420333",48.8660354,2.3420333,10,4,0.71,0.29
691,2008,Mairie du 2ème,-3,28,"48.8672190355135,2.3404625437747044",48.8672190355135,2.3404625437747044,14,0,1.0,0.0
692,2009,Filles Saint-Thomas - Place de la Bourse,8,58,"48.86889989085307,2.3397543845203477",48.86889989085307,2.3397543845203477,3,9,0.25,0.75
693,2010,Uzès - Montmartre,-35,29,"48.870790980240706,2.3431010171771054",48.870790980240706,2.3431010171771054,0,1,0.0,1.0
694,20103,Le Vau - Maurice Bertaux,-51,25,"48.86803439043193,2.411030612453627",48.86803439043193,2.411030612453627,0,2,0.0,1.0
695,20104,Louis Lumière.,-41,22,"48.86216198070008,2.41112578185621",48.86216198070008,2.41112578185621,1,5,0.17,0.83
696,20105,Benoît Frachon - République,-38,30,"48.85230729014318,2.415605485439301",48.85230729014318,2.415605485439301,4,3,0.57,0.43
697,20108,Jardin de l'Hospice Debrousse,-128,23,"48.861451061938,2.405686005949974",48.861451061938,2.405686005949974,0,0,,
698,20109,Haxo - Surmelin,-96,21,"48.8694370761222,2.40539657537972",48.8694370761222,2.40539657537972,0,0,,
699,20110,Gambetta - Tourelles,-195,20,"48.87533790226418,2.4059921130537987",48.87533790226418,2.4059921130537987,0,2,0.0,1.0
700,20111,Villiers de l'Isle Adam - Pyrénées,-174,20,"48.867362,2.396222",48.867362,2.396222,0,1,0.0,1.0
701,20112,Jourdain - Place des Grandes Rigoles,-176,22,"48.87403113727167,2.38959476351738",48.87403113727167,2.38959476351738,0,0,,
702,20113,Piat - Parc de Belleville,-28,21,"48.87195626635528,2.384981390278095",48.87195626635528,2.384981390278095,0,0,,
703,20115,Louis Lumière - Porte de Bagnolet,-112,20,"48.86431136000005,2.4105210229754443",48.86431136000005,2.4105210229754443,0,1,0.0,1.0
704,20116,Haies - Réunion,17,22,"48.85386896766491,2.402426162238911",48.85386896766491,2.402426162238911,0,3,0.0,1.0
705,20117,Saint-Fargeau - Mortier,-208,33,"48.87266656122256,2.407912909984589",48.87266656122256,2.407912909984589,0,0,,
706,20118,Orteaux - Mouraud,4,24,"48.85558642847872,2.408762907764669",48.85558642847872,2.408762907764669,0,2,0.0,1.0
707,20119,Square des Saint-Simoniens,-249,25,"48.8701796,2.3967273",48.8701796,2.3967273,0,1,0.0,1.0
708,2012,Choiseul - Quatre Septembre,11,44,"48.8699355331869,2.3359975218772893",48.8699355331869,2.3359975218772893,9,5,0.64,0.36
709,20120,Evariste Galois,-85,30,"48.87308753734472,2.4133380129933357",48.87308753734472,2.4133380129933357,0,1,0.0,1.0
710,20121,Boyer - Ménilmontant,-152,19,"48.86889516267913,2.3919824145634565",48.86889516267913,2.3919824145634565,0,3,0.0,1.0
711,20122,Vitruve - Davout,-9,23,"48.86053161154489,2.4091592812626543",48.86053161154489,2.4091592812626543,0,5,0.0,1.0
712,2013,Favart - Italiens,45,17,"48.87144635392104,2.338290105850787",48.87144635392104,2.338290105850787,3,1,0.75,0.25
713,20131,Repos - Cimetière du Père Lachaise,-239,33,"48.859358523592554,2.389613136684456",48.859358523592554,2.389613136684456,0,5,0.0,1.0
714,20132,Réunion - Avron,-45,26,"48.852566752033766,2.403928068708116",48.852566752033766,2.403928068708116,0,0,,
715,20134,Lieutenant Chauré - Etienne Marey,-90,20,"48.86746195408435,2.405970990657807",48.86746195408435,2.405970990657807,0,0,,
716,20136,Henri Chevreau - Couronnes,-36,27,"48.87033205312931,2.388777695596218",48.87033205312931,2.388777695596218,0,0,,
717,20137,Borrégo - Gambetta,-193,25,"48.87330497045532,2.4014145880937576",48.87330497045532,2.4014145880937576,0,0,,
718,2014,Daunou - Louis le Grand,51,17,"48.869113,2.332515",48.869113,2.332515,3,11,0.21,0.79
719,20140,Paganini - Davout,-2,22,"48.85135,2.412021",48.85135,2.412021,6,4,0.6,0.4
720,20142,Mûriers - Père Lachaise,-94,20,"48.864130509668044,2.39164982067019",48.864130509668044,2.39164982067019,0,0,,
721,20143,Ramponeau - Belleville,27,44,"48.871031137596006,2.3790568521139748",48.871031137596006,2.3790568521139748,1,1,0.5,0.5
722,2015,Louis le Grand - Italiens,3,33,"48.870508937203915,2.334054461939329",48.870508937203915,2.334054461939329,11,15,0.42,0.58
723,2016,Aboukir - Alexandrie,74,21,"48.86868344444473,2.3502043269474897",48.86868344444473,2.3502043269474897,0,3,0.0,1.0
724,2017,Caire - Dussoubs,53,40,"48.86785342111862,2.349364310503006",48.86785342111862,2.349364310503006,23,6,0.79,0.21
725,2020,Danielle Casanova - Opéra,51,20,"48.867643242297284,2.3333894088864326",48.867643242297284,2.3333894088864326,8,9,0.47,0.53
726,20201,Eugène Reisz - Davout,-56,20,"48.85631874632638,2.410396970808506",48.85631874632638,2.410396970808506,3,1,0.75,0.25
727,2021,Cléry - Montmartre,-25,44,"48.867458,2.3445211",48.867458,2.3445211,4,3,0.57,0.43
728,2022,Saint-Fiacre - Poissonière,-50,35,"48.87082891155797,2.3459213599562645",48.87082891155797,2.3459213599562645,1,3,0.25,0.75
729,2101,Bachaumont - Montmartre,52,33,"48.86617395079137,2.3449775576591496",48.86617395079137,2.3449775576591496,10,5,0.67,0.33
730,2102,Saint-Marc - Feydeau,-7,37,"48.870310661421705,2.341979183256626",48.870310661421705,2.341979183256626,1,1,0.5,0.5
731,2108,Vivienne - Montmartre,-10,39,"48.8713475973833,2.341458834707737",48.8713475973833,2.341458834707737,4,1,0.8,0.2
732,2109,Réaumur - Montmartre,-18,19,"48.86823099975891,2.343826033887573",48.86823099975891,2.343826033887573,5,0,1.0,0.0
733,2110,Jeûneurs - Mulhouse,38,28,"48.868997,2.346925",48.868997,2.346925,1,2,0.33,0.67
734,2111,Chabanais - Petits Champs,53,30,"48.86703740186721,2.336716018617153",48.86703740186721,2.336716018617153,22,2,0.92,0.08
735,2112,Bibliothèque Nationale - Richelieu,25,17,"48.868288993515,2.3380893096328",48.868288993515,2.3380893096328,5,7,0.42,0.58
736,3001,Beaumarchais - Saint-Gilles,163,51,"48.8580378,2.3679352",48.8580378,2.3679352,31,14,0.69,0.31
737,3002,Saint-Gilles - Turenne,174,18,"48.85815895677863,2.364714992099186",48.85815895677863,2.364714992099186,9,4,0.69,0.31
738,3003,Fille du Calvaire - Turenne,173,29,"48.86210505412563,2.3649600148200993",48.86210505412563,2.3649600148200993,11,10,0.52,0.48
739,3004,Place de la République - Temple,89,18,"48.86721120185892,2.363546437054538",48.86721120185892,2.363546437054538,12,4,0.75,0.25
740,3005,Sainte-Elisabeth - Turbigo,122,33,"48.86610337431042,2.359649240970612",48.86610337431042,2.359649240970612,12,14,0.46,0.54
741,3006,Mairie du 3ème,163,32,"48.86446178139141,2.361762821674347",48.86446178139141,2.361762821674347,16,13,0.55,0.45
742,3007,Archives - Pastourelle,111,28,"48.8623615,2.3595041",48.8623615,2.3595041,14,9,0.61,0.39
743,3008,Perle - Vieille du Temple,20,36,"48.8601346,2.3611206",48.8601346,2.3611206,20,11,0.65,0.35
744,3009,Temple - Haudriettes,48,19,"48.861636880211584,2.356696020645806",48.861636880211584,2.356696020645806,12,3,0.8,0.2
745,3010,Beaubourg - Michel-le-Comte,71,17,"48.862534941805855,2.354310303926468",48.862534941805855,2.354310303926468,15,1,0.94,0.06
746,3011,Turbigo - Réaumur,66,31,"48.86557404753054,2.3564198613166814",48.86557404753054,2.3564198613166814,9,21,0.3,0.7
747,3012,Square Emile - Chautemps,34,25,"48.86743372423056,2.353635728359223",48.86743372423056,2.353635728359223,12,8,0.6,0.4
748,3101,Porte Saint-Martin,8,35,"48.86860172112996,2.35570102930069",48.86860172112996,2.35570102930069,14,12,0.54,0.46
749,3102,Bourg l'Abbé - Saint-Martin,103,42,"48.86393331949257,2.352406270802021",48.86393331949257,2.352406270802021,25,15,0.62,0.38
750,4001,Arcole - Notre-Dame,20,31,"48.85388354132773,2.3493797332048416",48.85388354132773,2.3493797332048416,21,6,0.78,0.22
751,4002,Marché aux fleurs,21,23,"48.85525811539143,2.3473754525184636",48.85525811539143,2.3473754525184636,16,2,0.89,0.11
752,4003,Quai aux Fleurs - Pont Saint-Louis,23,21,"48.85291595620935,2.352195717394352",48.85291595620935,2.352195717394352,12,6,0.67,0.33
753,4005,Quai des Célestins - Henri IV,116,14,"48.8512971,2.3624535",48.8512971,2.3624535,10,4,0.71,0.29
754,4006,Bourdon - Pont Morland,43,0,"48.8478103,2.3659356",48.8478103,2.3659356,0,0,,
755,4007,Place de la Bastille - Bourdon,163,35,"48.852364355271085,2.368108928203583",48.852364355271085,2.368108928203583,23,5,0.82,0.18
756,4009,Village Saint-Paul,74,28,"48.852639866624806,2.3607301712036137",48.852639866624806,2.3607301712036137,14,11,0.56,0.44
757,4010,Saint-Antoine Sévigné,101,26,"48.8550222,2.3612322",48.8550222,2.3612322,12,3,0.8,0.2
758,4011,Hôtel de Ville - Pont-Marie,-8,36,"48.85389964552738,2.356947250664234",48.85389964552738,2.356947250664234,11,11,0.5,0.5
759,4012,Tiron - Rivoli,94,28,"48.85569225323279,2.357905805110932",48.85569225323279,2.357905805110932,9,16,0.36,0.64
760,4013,Vieille du Temple - Francs Bourgeois,49,29,"48.858256413365815,2.35821794718504",48.858256413365815,2.35821794718504,17,9,0.65,0.35
761,4014,Blancs-Manteaux - Archives,76,29,"48.859418007030406,2.355947121977806",48.859418007030406,2.355947121977806,13,6,0.68,0.32
762,4015,Mairie du 4ème,126,44,"48.85594991049653,2.3563823103904724",48.85594991049653,2.3563823103904724,31,10,0.76,0.24
763,4016,Lobau - Hôtel de Ville,201,60,"48.8562118,2.3532536",48.8562118,2.3532536,31,28,0.53,0.47
764,4017,Place de l'Hôtel de Ville,73,14,"48.8573314,2.351458",48.8573314,2.351458,9,4,0.69,0.31
765,4018,Saint-Bon - Rivoli,30,19,"48.857999643314926,2.350217280976349",48.857999643314926,2.350217280976349,6,9,0.4,0.6
766,4019,Cloître Saint-Merri - Renard,-10,32,"48.85883544889818,2.351827919483185",48.85883544889818,2.351827919483185,22,7,0.76,0.24
767,4020,Place Edmond Michelet,12,23,"48.860134890541865,2.350063696503639",48.860134890541865,2.350063696503639,4,17,0.19,0.81
768,4021,Centre Georges Pompidou,41,26,"48.861419,2.352581",48.861419,2.352581,9,11,0.45,0.55
769,4101,Bastille - Beaumarchais,97,23,"48.85383346385182,2.3685702681541443",48.85383346385182,2.3685702681541443,6,6,0.5,0.5
770,4103,Archives - Rivoli,41,25,"48.857346707443455,2.3539767041802406",48.857346707443455,2.3539767041802406,19,1,0.95,0.05
771,4104,Sebastopol - Rambuteau,126,16,"48.861818092669864,2.3501381278038025",48.861818092669864,2.3501381278038025,9,8,0.53,0.47
772,4107,Beaumarchais - Pas de la Mule,102,18,"48.855580507049055,2.368433367343057",48.855580507049055,2.368433367343057,7,5,0.58,0.42
773,4108,Quai de Béthune - Pont de la Tournelle,64,25,"48.85097433194032,2.356307208538055",48.85097433194032,2.356307208538055,15,7,0.68,0.32
774,4109,Mornay - Sully,112,15,"48.84970399548416,2.364460788667202",48.84970399548416,2.364460788667202,1,3,0.25,0.75
775,4110,Neuve Saint-Pierre - Beautreillis,144,20,"48.85355351439652,2.3639122769236565",48.85355351439652,2.3639122769236565,5,9,0.36,0.64
776,5001,Harpe - Saint-Germain,60,45,"48.85151881501689,2.343670316040516",48.85151881501689,2.343670316040516,34,10,0.77,0.23
777,5002,Sommerard - Saint-Jacques,148,34,"48.850310432924466,2.345015835298588",48.850310432924466,2.345015835298588,26,6,0.81,0.19
778,5003,Le Goff - Gay-Lussac,-51,35,"48.8461024009786,2.3412207886576653",48.8461024009786,2.3412207886576653,2,7,0.22,0.78
779,5004,Saint-Jacques - Val de Grâce,-7,20,"48.8417514,2.3413893",48.8417514,2.3413893,0,2,0.0,1.0
780,5005,Gay Lussac - Saint-Jacques,-4,24,"48.844730256132095,2.341923944866407",48.844730256132095,2.341923944866407,0,2,0.0,1.0
781,5006,Saint-Jacques - Soufflot,41,19,"48.8465255,2.343099",48.8465255,2.343099,3,7,0.3,0.7
782,5007,Ecoles - Carmes,-34,36,"48.848904447989405,2.3473486304283147",48.848904447989405,2.3473486304283147,7,13,0.35,0.65
783,5012,Estrapade - Ulm,55,16,"48.84512772828039,2.3454568170361734",48.84512772828039,2.3454568170361734,5,3,0.62,0.38
784,5014,Jean Calvin - Tournefort,29,28,"48.84158856925782,2.348489575088024",48.84158856925782,2.348489575088024,0,1,0.0,1.0
785,5015,Epée de Bois - Mouffetard,2,63,"48.841508690388835,2.350066713988781",48.841508690388835,2.350066713988781,4,4,0.5,0.5
786,5016,Thouin - Cardinal Lemoine,12,17,"48.84504716661511,2.3494647851273465",48.84504716661511,2.3494647851273465,2,3,0.4,0.6
787,5018,Mutualité,91,37,"48.8482255727241,2.350287325680256",48.8482255727241,2.350287325680256,18,6,0.75,0.25
788,5019,Poissy - Saint-Germain,83,25,"48.849696494270084,2.352968528866768",48.849696494270084,2.352968528866768,15,4,0.79,0.21
789,5020,Institut du Monde Arabe - Saint-Germain,-16,40,"48.84906329950134,2.3558086529374123",48.84906329950134,2.3558086529374123,31,6,0.84,0.16
790,5021,Jussieu - Fossés Saint-Bernard,184,39,"48.84718551002347,2.3534858599305153",48.84718551002347,2.3534858599305153,29,9,0.76,0.24
791,5022,Boulangers - Cardinal Lemoine,-61,20,"48.8462904,2.3521495",48.8462904,2.3521495,0,6,0.0,1.0
792,5024,Place Monge,36,21,"48.842761803051346,2.3524079471826553",48.842761803051346,2.3524079471826553,1,1,0.5,0.5
793,5026,Pascal - Claude Bernard,129,49,"48.839061952159746,2.3499782010912895",48.839061952159746,2.3499782010912895,16,7,0.7,0.3
794,5027,Gobelins - Port-Royal,97,40,"48.83713590026284,2.3515201359987254",48.83713590026284,2.3515201359987254,15,4,0.79,0.21
795,5028,Censier - Jardin des Plantes,71,28,"48.84107178161383,2.355475388467312",48.84107178161383,2.355475388467312,10,11,0.48,0.52
796,5029,Georges Bernanos - Port Royal,-35,30,"48.84014521347377,2.3373574018478394",48.84014521347377,2.3373574018478394,2,2,0.5,0.5
797,5030,Sorbonne - Ecoles,-16,50,"48.849686566191,2.3434996604919",48.849686566191,2.3434996604919,20,17,0.54,0.46
798,5031,Lacépède - Linné,-24,54,"48.8437035476636,2.354651279747486",48.8437035476636,2.354651279747486,19,0,1.0,0.0
799,5032,Panthéon - Valette,-18,39,"48.84702057165222,2.3464982619671075",48.84702057165222,2.3464982619671075,0,34,0.0,1.0
800,5033,Saint-Séverin - Saint-Michel,58,30,"48.85273130548806,2.3440927639603615",48.85273130548806,2.3440927639603615,21,8,0.72,0.28
801,5034,Censier - Santeuil,112,69,"48.840658921385234,2.3537524044513702",48.840658921385234,2.3537524044513702,43,5,0.9,0.1
802,5105,Geoffroy-Saint-Hilaire - Saint-Marcel,64,17,"48.83907826424974,2.356877340669728",48.83907826424974,2.356877340669728,3,1,0.75,0.25
803,5106,Cujas - Saint-Michel,-61,19,"48.84819134858432,2.34183165485398",48.84819134858432,2.34183165485398,8,0,1.0,0.0
804,5107,Pontoise - La Tournelle,93,23,"48.85045800918843,2.352454275492188",48.85045800918843,2.352454275492188,20,1,0.95,0.05
805,5110,Lacépède - Monge,-26,23,"48.84389286531899,2.3519663885235786",48.84389286531899,2.3519663885235786,0,8,0.0,1.0
806,5114,Claude Bernard - Arbalète,-18,17,"48.83976676978202,2.347510904073715",48.83976676978202,2.347510904073715,1,2,0.33,0.67
807,5115,Buffon - Jardin des Plantes,6,30,"48.842668466104875,2.3618587106466293",48.842668466104875,2.3618587106466293,23,5,0.82,0.18
808,5116,Place Valhubert,160,37,"48.844182577315166,2.3640366643667217",48.844182577315166,2.3640366643667217,24,7,0.77,0.23
809,5119,Jussieu - Guy de la Brosse,45,40,"48.845665,2.355653",48.845665,2.355653,19,7,0.73,0.27
810,5121,Square René Viviani - Montebello,60,34,"48.851904891406384,2.347842156887055",48.851904891406384,2.347842156887055,24,5,0.83,0.17
811,5123,Saint-Germain - Thenard,123,31,"48.850571,2.3471015",48.850571,2.3471015,20,5,0.8,0.2
812,5124,Erasme - Ulm,93,24,"48.84264375274712,2.3445946723222733",48.84264375274712,2.3445946723222733,1,1,0.5,0.5
813,6001,Institut de France,-15,17,"48.85761567856468,2.335831353037739",48.85761567856468,2.335831353037739,5,10,0.33,0.67
814,6002,Saint-Benoît - Jacob,114,23,"48.85545136013941,2.3334722220897675",48.85545136013941,2.3334722220897675,18,4,0.82,0.18
